[{"StationID": "720215", "Label": "A6 Bridge", "Town": "Bilsborrow", "Lat": "53.858854", "Long": "-2.743276", "River": "River Brock", "Catchment": "Lune and Wyre", "Status": "http://environment.data.gov.uk/flood-monitoring/def/core/statusActive", "Measure": "Water Level", "Qualifier": "Stage", "Unit": "m", "County": "Lancashire"}, {"StationID": "SJ56_129", "Label": "Abbey Arms Wood", "Town": "No town available", "Lat": "No lat available", "Long": "No long available", "River": "No river name available", "Catchment": "No catchment name available", "Status": "No status available", "Measure": "Water Level", "Qualifier": "Groundwater", "Unit": "m", "County": "Cheshire"}, {"StationID": "E23730", "Label": "Abbey Heath", "Town": "Abbey Heath", "Lat": "52.425882", "Long": "0.720787", "River": "River Little Ouse", "Catchment": "Cam and Ely Ouse (Including South Level)", "Status": "http://environment.data.gov.uk/flood-monitoring/def/core/statusActive", "Measure": "Water Level", "Qualifier": "Stage", "Unit": "m", "County": "Norfolk"}, {"StationID": "2662", "Label": "Abbeymead Avenue", "Town": "Gloucester", "Lat": "51.840929", "Long": "-2.202237", "River": "River Twyver", "Catchment": "Severn Vale", "Status": "http://environment.data.gov.uk/flood-monitoring/def/core/statusActive", "Measure": "Water Level", "Qualifier": "Stage", "Unit": "mASD", "County": "Gloucestershire"}, {"StationID": "720101", "Label": "Abbeystead Reservoir", "Town": "Abbeystead", "Lat": "53.978695", "Long": "-2.677098", "River": "River Wyre", "Catchment": "Lune and Wyre", "Status": "http://environment.data.gov.uk/flood-monitoring/def/core/statusActive", "Measure": "Water Level", "Qualifier": "Stage", "Unit": "m", "County": "Lancashire"}, {"StationID": "SJ56_125", "Label": "Abbotts D Scouts Gate", "Town": "No town available", "Lat": "No lat available", "Long": "No long available", "River": "No river name available", "Catchment": "No catchment name available", "Status": "No status available", "Measure": "Water Level", "Qualifier": "Groundwater", "Unit": "m", "County": "Cheshire"}, {"StationID": "SJ56_126", "Label": "Abbotts E", "Town": "No town available", "Lat": "No lat available", "Long": "No long available", "River": "No river name available", "Catchment": "No catchment name available", "Status": "No status available", "Measure": "Water Level", "Qualifier": "Groundwater", "Unit": "m", "County": "Cheshire"}, {"StationID": "4186TH", "Label": "Abercairn Road", "Town": "Streatham", "Lat": "51.416099", "Long": "-0.143444", "River": "River Graveney", "Catchment": "London", "Status": "http://environment.data.gov.uk/flood-monitoring/def/core/statusActive", "Measure": "Water Level", "Qualifier": "Stage", "Unit": "mASD", "County": "Greater London"}, {"StationID": "1790TH", "Label": "Abingdon", "Town": "Abingdon", "Lat": "51.666656", "Long": "-1.305189", "River": "River Ock", "Catchment": "Vale of White Horse", "Status": "http://environment.data.gov.uk/flood-monitoring/def/core/statusActive", "Measure": "Water Level", "Qualifier": "Downstream Stage, Stage", "Unit": "mASD, mASD", "County": "Oxfordshire"}, {"StationID": "1679TH", "Label": "Abingdon", "Town": "Abingdon", "Lat": "51.684602", "Long": "-1.282696", "River": "River Stert", "Catchment": "Vale of White Horse", "Status": "http://environment.data.gov.uk/flood-monitoring/def/core/statusActive", "Measure": "Water Level", "Qualifier": "Stage", "Unit": "mASD", "County": "Oxfordshire"}, {"StationID": "1503TH", "Label": "Abingdon Lock", "Town": "Abingdon", "Lat": "51.670388", "Long": "-1.268257", "River": "River Thames", "Catchment": "Cherwell Thame and Wye", "Status": "http://environment.data.gov.uk/flood-monitoring/def/core/statusActive", "Measure": "Water Level", "Qualifier": "Downstream Stage, Downstream Stage, Stage, Stage", "Unit": "---, mASD, ---, mASD", "County": "Oxfordshire"}, {"StationID": "1681TH", "Label": "Abingdon Peachcroft", "Town": "Abingdon", "Lat": "51.683092", "Long": "-1.268125", "River": "Radley Park Ditch", "Catchment": "Vale of White Horse", "Status": "http://environment.data.gov.uk/flood-monitoring/def/core/statusActive", "Measure": "Water Level", "Qualifier": "Stage", "Unit": "mASD", "County": "Oxfordshire"}, {"StationID": "5459TH", "Label": "Abridge", "Town": "Abridge", "Lat": "51.65178", "Long": "0.119024", "River": "River Roding", "Catchment": "Rodding", "Status": "http://environment.data.gov.uk/flood-monitoring/def/core/statusActive", "Measure": "Water Level", "Qualifier": "Stage", "Unit": "mASD", "County": "Essex"}, {"StationID": "E23931", "Label": "Acle Bridge", "Town": "Acle", "Lat": "52.649186", "Long": "1.567619", "River": "River Bure", "Catchment": "Broadland Rivers", "Status": "http://environment.data.gov.uk/flood-monitoring/def/core/statusActive", "Measure": "Water Level", "Qualifier": "Tidal Level", "Unit": "mAOD", "County": "Norfolk"}, {"StationID": "023062", "Label": "Acomb Garden House", "Town": "Acomb Garden House", "Lat": "54.988973", "Long": "-2.110623", "River": "Birkey Burn", "Catchment": "Tyne", "Status": "http://environment.data.gov.uk/flood-monitoring/def/core/statusActive", "Measure": "Water Level", "Qualifier": "Stage", "Unit": "m", "County": "Northumberland"}, {"StationID": "023063", "Label": "Acomb Millersfield", "Town": "Acomb Millersfield", "Lat": "54.994482", "Long": "-2.110967", "River": "Red Burn", "Catchment": "Tyne", "Status": "http://environment.data.gov.uk/flood-monitoring/def/core/statusActive", "Measure": "Water Level", "Qualifier": "Stage", "Unit": "m", "County": "Northumberland"}, {"StationID": "712100", "Label": "Active Way", "Town": "Burnley", "Lat": "53.791155", "Long": "-2.247834", "River": "River Calder", "Catchment": "Ribble Douglas and Crossens", "Status": "http://environment.data.gov.uk/flood-monitoring/def/core/statusActive", "Measure": "Water Level", "Qualifier": "Stage", "Unit": "m", "County": "Lancashire"}, {"StationID": "685517", "Label": "Acton Lane", "Town": "Upton", "Lat": "53.395655", "Long": "-3.121735", "River": "Arrowe Brook", "Catchment": "Lower Mersey", "Status": "http://environment.data.gov.uk/flood-monitoring/def/core/statusActive", "Measure": "Water Level", "Qualifier": "Stage", "Unit": "m", "County": "Merseyside"}, {"StationID": "F1903", "Label": "Addingham", "Town": "Langbar", "Lat": "53.939721", "Long": "-1.862096", "River": "River Wharfe", "Catchment": "Wharfe and Lower Ouse", "Status": "http://environment.data.gov.uk/flood-monitoring/def/core/statusActive", "Measure": "Water Level", "Qualifier": "Stage", "Unit": "m", "County": "West Yorkshire"}, {"StationID": "L1931", "Label": "Addingham, Town Beck", "Town": "Addingham", "Lat": "53.944393", "Long": "-1.886441", "River": "Town Beck", "Catchment": "Wharfe and Lower Ouse", "Status": "http://environment.data.gov.uk/flood-monitoring/def/core/statusActive", "Measure": "Water Level", "Qualifier": "Stage", "Unit": "m", "County": "West Yorkshire"}, {"StationID": "TQ3635", "Label": "Addington Lodge", "Town": "New Addington", "Lat": "51.342256", "Long": "-0.021799", "River": "Groundwater Level", "Catchment": "London", "Status": "http://environment.data.gov.uk/flood-monitoring/def/core/statusSuspended", "Measure": "Water Level", "Qualifier": "Groundwater", "Unit": "mAOD", "County": "Greater London"}, {"StationID": "2989TH", "Label": "Addlestone", "Town": "Addlestone", "Lat": "51.374167", "Long": "-0.478479", "River": "Addlestone Bourne", "Catchment": "Bournes", "Status": "http://environment.data.gov.uk/flood-monitoring/def/core/statusActive", "Measure": "Flow, Water Level", "Qualifier": ", , Water, Stage", "Unit": "m3/s, m3/s, m3/s, mASD", "County": "Surrey"}, {"StationID": "690511", "Label": "Adelphi Weir", "Town": "Salford", "Lat": "53.485246", "Long": "-2.26639", "River": "River Irwell", "Catchment": "Northern Manchester", "Status": "http://environment.data.gov.uk/flood-monitoring/def/core/statusActive", "Measure": "Water Level", "Qualifier": "Stage, Stage", "Unit": "---, m", "County": "Greater Manchester"}, {"StationID": "F0803", "Label": "Adwick", "Town": "Harlington", "Lat": "53.512513", "Long": "-1.282162", "River": "River Dearne", "Catchment": "Don and Rother", "Status": "http://environment.data.gov.uk/flood-monitoring/def/core/statusActive", "Measure": "Water Level", "Qualifier": "Stage", "Unit": "m", "County": "South Yorkshire"}, {"StationID": "4259", "Label": "Agnes Meadow", "Town": "Agnes Meadow Bridge, Ashbourne", "Lat": "53.023273", "Long": "-1.680181", "River": "Henmore Brook", "Catchment": "Dove", "Status": "http://environment.data.gov.uk/flood-monitoring/def/core/statusActive", "Measure": "Water Level", "Qualifier": "Stage", "Unit": "mASD", "County": "Derbyshire"}, {"StationID": "TA04A000CC", "Label": "Aike", "Town": "No town available", "Lat": "No lat available", "Long": "No long available", "River": "No river name available", "Catchment": "No catchment name available", "Status": "No status available", "Measure": "Water Level", "Qualifier": "Groundwater", "Unit": "mAOD", "County": "East Riding of Yorkshire"}, {"StationID": "SD31_45", "Label": "Ainsdale High School", "Town": "No town available", "Lat": "No lat available", "Long": "No long available", "River": "No river name available", "Catchment": "No catchment name available", "Status": "No status available", "Measure": "Water Level", "Qualifier": "Groundwater", "Unit": "m", "County": "Merseyside"}, {"StationID": "NY54_10", "Label": "Ainstable", "Town": "No town available", "Lat": "No lat available", "Long": "No long available", "River": "No river name available", "Catchment": "No catchment name available", "Status": "No status available", "Measure": "Water Level", "Qualifier": "Groundwater", "Unit": "m", "County": "Cumbria"}, {"StationID": "L1800", "Label": "Airmyn", "Town": "Airmyn", "Lat": "53.71643", "Long": "-0.908963", "River": "River Aire", "Catchment": "Aire and Calder", "Status": "http://environment.data.gov.uk/flood-monitoring/def/core/statusActive", "Measure": "Water Level", "Qualifier": "Stage, Stage, Stage", "Unit": "---, m, mAOD", "County": "East Riding of Yorkshire"}, {"StationID": "SJ79_34A", "Label": "Akzo Noble", "Town": "No town available", "Lat": "No lat available", "Long": "No long available", "River": "No river name available", "Catchment": "No catchment name available", "Status": "No status available", "Measure": "Water Level", "Qualifier": "Groundwater", "Unit": "m", "County": "Greater Manchester"}, {"StationID": "690207", "Label": "Albert Royds Bridge", "Town": "Smallbridge", "Lat": "53.62694", "Long": "-2.13755", "River": "River Roch", "Catchment": "Northern Manchester", "Status": "http://environment.data.gov.uk/flood-monitoring/def/core/statusActive", "Measure": "Water Level", "Qualifier": "Stage", "Unit": "m", "County": "Greater Manchester"}, {"StationID": "3074TH", "Label": "Albury", "Town": "Albury", "Lat": "51.210841", "Long": "-0.504627", "River": "Law Brook", "Catchment": "Wey", "Status": "http://environment.data.gov.uk/flood-monitoring/def/core/statusActive", "Measure": "Water Level", "Qualifier": "Stage", "Unit": "mASD", "County": "Surrey"}, {"StationID": "E19027", "Label": "Alconbury Weston", "Town": "Alconbury Weston", "Lat": "52.377001", "Long": "-0.269421", "River": "Alconbury Brook", "Catchment": "Upper and Bedford Ouse", "Status": "http://environment.data.gov.uk/flood-monitoring/def/core/statusActive", "Measure": "Water Level", "Qualifier": "Stage", "Unit": "mASD", "County": "Cambridgeshire"}, {"StationID": "E4351", "Label": "Aldington Upstream", "Town": "Aldington", "Lat": "51.105167", "Long": "0.948046", "River": "East Stour Trib  Great Stour", "Catchment": "Stour", "Status": "http://environment.data.gov.uk/flood-monitoring/def/core/statusActive", "Measure": "Water Level", "Qualifier": "Stage", "Unit": "mASD", "County": "Kent"}, {"StationID": "L2200", "Label": "Aldwark Bridge", "Town": "Aldwark", "Lat": "54.053636", "Long": "-1.288144", "River": "River Ure", "Catchment": "Swale, Ure, Nidd and Upper Ouse", "Status": "http://environment.data.gov.uk/flood-monitoring/def/core/statusActive", "Measure": "Water Level", "Qualifier": "Stage", "Unit": "m", "County": "North Yorkshire"}, {"StationID": "E9883", "Label": "Alfoldean", "Town": "Horsham", "Lat": "51.086792", "Long": "-0.406225", "River": "River Arun", "Catchment": "Arun and Western Streams", "Status": "http://environment.data.gov.uk/flood-monitoring/def/core/statusActive", "Measure": "Water Level", "Qualifier": "Stage", "Unit": "mASD", "County": "West Sussex"}, {"StationID": "1480SO", "Label": "Alkham Valley", "Town": "No town available", "Lat": "51.139335", "Long": "1.236398", "River": "Groundwater Level", "Catchment": "Stour", "Status": "http://environment.data.gov.uk/flood-monitoring/def/core/statusActive", "Measure": "Water Level", "Qualifier": "Groundwater, Groundwater", "Unit": "mAOD, mAOD", "County": "Kent"}, {"StationID": "023036", "Label": "Allen Mill Bridge", "Town": "Allendale Town", "Lat": "54.904713", "Long": "-2.265082", "River": "River East Allen", "Catchment": "Tyne", "Status": "http://environment.data.gov.uk/flood-monitoring/def/core/statusActive", "Measure": "Water Level", "Qualifier": "Stage", "Unit": "m", "County": "Northumberland"}, {"StationID": "51104", "Label": "Allerford", "Town": "Allerford", "Lat": "51.211692", "Long": "-3.569292", "River": "River Aller", "Catchment": "Parrett, Brue and West Somerset Streams", "Status": "http://environment.data.gov.uk/flood-monitoring/def/core/statusActive", "Measure": "Water Level", "Qualifier": "Stage, Stage, Stage", "Unit": "m, mAOD, mASD", "County": "Somerset"}, {"StationID": "L1721", "Label": "Allerton Ings", "Town": "Leeds", "Lat": "53.740078", "Long": "-1.366226", "River": "Aire Washlands", "Catchment": "Aire and Calder", "Status": "http://environment.data.gov.uk/flood-monitoring/def/core/statusActive", "Measure": "Water Level", "Qualifier": "Stage", "Unit": "m", "County": "West Yorkshire"}, {"StationID": "E4222", "Label": "Allington", "Town": "Allington", "Lat": "52.94938", "Long": "-0.702125", "River": "Foston Beck", "Catchment": "Witham", "Status": "http://environment.data.gov.uk/flood-monitoring/def/core/statusActive", "Measure": "Water Level", "Qualifier": "Stage", "Unit": "m", "County": "Lincolnshire"}, {"StationID": "E427", "Label": "Allington Lock", "Town": "Sandling", "Lat": "51.295161", "Long": "0.507204", "River": "River Medway", "Catchment": "Medway", "Status": "http://environment.data.gov.uk/flood-monitoring/def/core/statusActive", "Measure": "Water Level", "Qualifier": "Stage, Stage", "Unit": "mAOD, mASD", "County": "Kent"}, {"StationID": "E581", "Label": "Allington Marina", "Town": "Sandling", "Lat": "51.291026", "Long": "0.511282", "River": "River Medway", "Catchment": "Medway", "Status": "http://environment.data.gov.uk/flood-monitoring/def/core/statusActive", "Measure": "Water Level", "Qualifier": "Stage", "Unit": "mASD", "County": "Kent"}, {"StationID": "736417", "Label": "Allotments", "Town": "Ulverston", "Lat": "54.193218", "Long": "-3.084524", "River": "Town Beck", "Catchment": "Kent and Leven", "Status": "http://environment.data.gov.uk/flood-monitoring/def/core/statusActive", "Measure": "Water Level", "Qualifier": "Stage", "Unit": "m", "County": "Cumbria"}, {"StationID": "F2216", "Label": "Alma Weir", "Town": "Ripon", "Lat": "54.13342", "Long": "-1.51864", "River": "River Skell", "Catchment": "Swale, Ure, Nidd and Upper Ouse", "Status": "http://environment.data.gov.uk/flood-monitoring/def/core/statusActive", "Measure": "Water Level", "Qualifier": "Stage", "Unit": "m", "County": "North Yorkshire"}, {"StationID": "023009", "Label": "Alston", "Town": "Alston", "Lat": "54.812531", "Long": "-2.443415", "River": "River South Tyne", "Catchment": "Tyne", "Status": "http://environment.data.gov.uk/flood-monitoring/def/core/statusActive", "Measure": "Water Level", "Qualifier": "Stage", "Unit": "m", "County": "Cumbria"}, {"StationID": "3010TH", "Label": "Alton High Street", "Town": "Alton", "Lat": "51.149557", "Long": "-0.976568", "River": "River Wey", "Catchment": "Wey", "Status": "http://environment.data.gov.uk/flood-monitoring/def/core/statusActive", "Measure": "Water Level", "Qualifier": "Crest Tapping, Stage", "Unit": "mASD, mASD", "County": "Hampshire"}, {"StationID": "3610SO", "Label": "Alverstone", "Town": "Alverstone", "Lat": "50.667206", "Long": "-1.184737", "River": "Eastern Yar", "Catchment": "Isle of Wight", "Status": "http://environment.data.gov.uk/flood-monitoring/def/core/statusActive", "Measure": "Water Level", "Qualifier": "Stage, Stage", "Unit": "mAOD, mASD", "County": "Isle of Wight"}, {"StationID": "022014", "Label": "Alwinton Bridge", "Town": "Alwinton", "Lat": "55.344803", "Long": "-2.122952", "River": "River Coquet", "Catchment": "Northumberland Rivers", "Status": "http://environment.data.gov.uk/flood-monitoring/def/core/statusActive", "Measure": "Water Level", "Qualifier": "Stage", "Unit": "m", "County": "Northumberland"}, {"StationID": "735019", "Label": "Ambleside Rydal Road", "Town": "Ambleside", "Lat": "54.433747", "Long": "-2.965717", "River": "Stock Ghyll", "Catchment": "South Cumbria", "Status": "http://environment.data.gov.uk/flood-monitoring/def/core/statusActive", "Measure": "Water Level", "Qualifier": "Stage", "Unit": "m", "County": "Cumbria"}, {"StationID": "43113", "Label": "Amesbury", "Town": "Amesbury", "Lat": "51.17155", "Long": "-1.785174", "River": "River Avon", "Catchment": "Hampshire Avon", "Status": "http://environment.data.gov.uk/flood-monitoring/def/core/statusActive", "Measure": "Water Level", "Qualifier": "Stage", "Unit": "m", "County": "Wiltshire"}, {"StationID": "0470TH", "Label": "Ampney St Peter", "Town": "Ampney St Peter", "Lat": "51.710647", "Long": "-1.889951", "River": "Ampney Brook", "Catchment": "Cotswolds", "Status": "http://environment.data.gov.uk/flood-monitoring/def/core/statusActive", "Measure": "Water Level", "Qualifier": "Downstream Stage, Stage", "Unit": "mASD, mASD", "County": "Gloucestershire"}, {"StationID": "E8330", "Label": "Anchor Gates", "Town": "Barcombe", "Lat": "50.924994", "Long": "0.050081", "River": "River Ouse", "Catchment": "Ouse", "Status": "http://environment.data.gov.uk/flood-monitoring/def/core/statusActive", "Measure": "Water Level", "Qualifier": "Stage", "Unit": "mAOD", "County": "East Sussex"}, {"StationID": "E13860", "Label": "Andover Town Mill", "Town": "Andover", "Lat": "51.20755", "Long": "-1.482278", "River": "River Anton", "Catchment": "Test and Itchen", "Status": "http://environment.data.gov.uk/flood-monitoring/def/core/statusActive", "Measure": "Water Level", "Qualifier": "Stage, Stage", "Unit": "mAOD, mASD", "County": "Hampshire"}, {"StationID": "4147", "Label": "Anslow", "Town": "No town available", "Lat": "52.839223", "Long": "-1.665782", "River": "Rolleston Brook", "Catchment": "Dove", "Status": "http://environment.data.gov.uk/flood-monitoring/def/core/statusActive", "Measure": "Water Level", "Qualifier": "Stage", "Unit": "mASD", "County": "Staffordshire"}, {"StationID": "L1602", "Label": "Apperley Bridge", "Town": "No town available", "Lat": "53.837637", "Long": "-1.706351", "River": "River Aire", "Catchment": "Aire and Calder", "Status": "http://environment.data.gov.uk/flood-monitoring/def/core/statusActive", "Measure": "Water Level", "Qualifier": "Stage", "Unit": "m", "County": "West Yorkshire"}, {"StationID": "760115", "Label": "Appleby", "Town": "Appleby-In-Westmorland", "Lat": "54.579834", "Long": "-2.491428", "River": "River Eden", "Catchment": "Eden and Esk", "Status": "http://environment.data.gov.uk/flood-monitoring/def/core/statusActive", "Measure": "Water Level", "Qualifier": "Stage", "Unit": "m", "County": "Cumbria"}, {"StationID": "E22815", "Label": "Appleford Bridge", "Town": "Rivenhall End", "Lat": "51.810408", "Long": "0.674711", "River": "River Blackwater", "Catchment": "Essex", "Status": "http://environment.data.gov.uk/flood-monitoring/def/core/statusActive", "Measure": "Water Level", "Qualifier": "Stage", "Unit": "m", "County": "Essex"}, {"StationID": "700309", "Label": "Appley Bridge", "Town": "Appley Bridge", "Lat": "53.577223", "Long": "-2.72144", "River": "River Douglas", "Catchment": "Ribble Douglas and Crossens", "Status": "http://environment.data.gov.uk/flood-monitoring/def/core/statusActive", "Measure": "Water Level", "Qualifier": "Stage", "Unit": "m", "County": "Lancashire"}, {"StationID": "4087TH", "Label": "Arabella Drive", "Town": "No town available", "Lat": "51.465498", "Long": "-0.253664", "River": "No river name available", "Catchment": "No catchment name available", "Status": "No status available", "Measure": "Water Level", "Qualifier": "Stage", "Unit": "mASD", "County": "Greater London"}, {"StationID": "2473TH", "Label": "Arborfield Bridge", "Town": "Shinfield", "Lat": "51.403467", "Long": "-0.933245", "River": "River Loddon", "Catchment": "Loddon", "Status": "http://environment.data.gov.uk/flood-monitoring/def/core/statusActive", "Measure": "Water Level", "Qualifier": "Stage", "Unit": "mASD", "County": "Berkshire"}, {"StationID": "E8266", "Label": "Ardingly", "Town": "Ardingly", "Lat": "51.038451", "Long": "-0.100268", "River": "River Ouse", "Catchment": "Ouse", "Status": "http://environment.data.gov.uk/flood-monitoring/def/core/statusActive", "Measure": "Water Level", "Qualifier": "Stage", "Unit": "mASD", "County": "West Sussex"}, {"StationID": "2650", "Label": "Arle", "Town": "Cheltenham", "Lat": "51.91358", "Long": "-2.100884", "River": "River Chelt", "Catchment": "Severn Vale", "Status": "http://environment.data.gov.uk/flood-monitoring/def/core/statusActive", "Measure": "Water Level", "Qualifier": "Stage", "Unit": "mASD", "County": "Gloucestershire"}, {"StationID": "E22344", "Label": "Arlesey", "Town": "Arlesey", "Lat": "52.026751", "Long": "-0.266941", "River": "River Hiz", "Catchment": "Upper and Bedford Ouse", "Status": "http://environment.data.gov.uk/flood-monitoring/def/core/statusActive", "Measure": "Water Level", "Qualifier": "Stage", "Unit": "m", "County": "Bedfordshire"}, {"StationID": "F1707", "Label": "Armley", "Town": "Leeds", "Lat": "53.801534", "Long": "-1.574829", "River": "River Aire", "Catchment": "Aire and Calder", "Status": "http://environment.data.gov.uk/flood-monitoring/def/core/statusActive", "Measure": "Water Level", "Qualifier": "Stage, Stage", "Unit": "---, m", "County": "West Yorkshire"}, {"StationID": "2272", "Label": "Armscroft Place", "Town": "Gloucester", "Lat": "51.863183", "Long": "-2.221361", "River": "Wotton Brook", "Catchment": "Severn Vale", "Status": "http://environment.data.gov.uk/flood-monitoring/def/core/statusActive", "Measure": "Water Level", "Qualifier": "Stage", "Unit": "mASD", "County": "Gloucestershire"}, {"StationID": "710103", "Label": "Arnford Weir", "Town": "Arnford Weir", "Lat": "53.996041", "Long": "-2.247662", "River": "River Ribble", "Catchment": "Ribble Douglas and Crossens", "Status": "http://environment.data.gov.uk/flood-monitoring/def/core/statusActive", "Measure": "Water Level", "Qualifier": "Stage", "Unit": "m", "County": "North Yorkshire"}, {"StationID": "5364TH", "Label": "Arnos Park", "Town": "Southgate", "Lat": "51.616543", "Long": "-0.126609", "River": "Pymmes Brook", "Catchment": "Lower Lee", "Status": "http://environment.data.gov.uk/flood-monitoring/def/core/statusActive", "Measure": "Water Level", "Qualifier": "Downstream Stage, Stage", "Unit": "mASD, mASD", "County": "Greater London"}, {"StationID": "L2007", "Label": "Arthington", "Town": "Weeton", "Lat": "53.903016", "Long": "-1.552492", "River": "River Wharfe", "Catchment": "Wharfe and Lower Ouse", "Status": "http://environment.data.gov.uk/flood-monitoring/def/core/statusActive", "Measure": "Water Level", "Qualifier": "Stage, Stage", "Unit": "---, m", "County": "North Yorkshire"}, {"StationID": "E9520", "Label": "Arundel", "Town": "Arundel", "Lat": "50.853787", "Long": "-0.552785", "River": "River Arun", "Catchment": "Arun and Western Streams", "Status": "http://environment.data.gov.uk/flood-monitoring/def/core/statusActive", "Measure": "Water Level", "Qualifier": "Stage", "Unit": "mAOD", "County": "West Sussex"}, {"StationID": "4058", "Label": "Ashbourne", "Town": "Ashbourne", "Lat": "53.013888", "Long": "-1.738962", "River": "Henmore Brook", "Catchment": "Dove", "Status": "http://environment.data.gov.uk/flood-monitoring/def/core/statusActive", "Measure": "Water Level", "Qualifier": "Stage", "Unit": "mASD", "County": "Derbyshire"}, {"StationID": "680504", "Label": "Ashbrook", "Town": "Wimboldsley Green", "Lat": "53.165868", "Long": "-2.494907", "River": "River Weaver", "Catchment": "Weaver and Dane", "Status": "http://environment.data.gov.uk/flood-monitoring/def/core/statusActive", "Measure": "Water Level", "Qualifier": "Stage, Stage", "Unit": "---, m", "County": "Cheshire"}, {"StationID": "46115", "Label": "Ashburton Lower", "Town": "Ashburton", "Lat": "50.5162", "Long": "-3.757538", "River": "River Ashburn", "Catchment": "Teign Torbay and South Hams", "Status": "http://environment.data.gov.uk/flood-monitoring/def/core/statusActive", "Measure": "Water Level", "Qualifier": "Stage", "Unit": "mASD", "County": "Devon"}, {"StationID": "46116", "Label": "Ashburton Upper", "Town": "Ashburton", "Lat": "50.521452", "Long": "-3.756985", "River": "River Ashburn", "Catchment": "Teign Torbay and South Hams", "Status": "http://environment.data.gov.uk/flood-monitoring/def/core/statusActive", "Measure": "Water Level", "Qualifier": "Stage", "Unit": "mASD", "County": "Devon"}, {"StationID": "45131", "Label": "Ashclyst", "Town": "Ashclyst", "Lat": "50.776088", "Long": "-3.403906", "River": "River Clyst", "Catchment": "Exe", "Status": "http://environment.data.gov.uk/flood-monitoring/def/core/statusActive", "Measure": "Water Level", "Qualifier": "Stage", "Unit": "m", "County": "Devon"}, {"StationID": "52114", "Label": "Ashford Mill", "Town": "Ilton", "Lat": "50.964926", "Long": "-2.912024", "River": "River Isle", "Catchment": "Parrett, Brue and West Somerset Streams", "Status": "http://environment.data.gov.uk/flood-monitoring/def/core/statusActive", "Measure": "Water Level", "Qualifier": "Stage", "Unit": "m", "County": "Somerset"}, {"StationID": "2071", "Label": "Ashleworth", "Town": "Ashleworth", "Lat": "51.922936", "Long": "-2.265002", "River": "River Severn", "Catchment": "Severn Vale", "Status": "http://environment.data.gov.uk/flood-monitoring/def/core/statusActive", "Measure": "Water Level", "Qualifier": "Stage", "Unit": "mASD", "County": "Gloucestershire"}, {"StationID": "E2296", "Label": "Ashley", "Town": "Drayton", "Lat": "52.515233", "Long": "-0.794532", "River": "River Welland", "Catchment": "Welland", "Status": "http://environment.data.gov.uk/flood-monitoring/def/core/statusActive", "Measure": "Water Level", "Qualifier": "Stage", "Unit": "mASD", "County": "Leicestershire"}, {"StationID": "43170", "Label": "Ashmore", "Town": "Ashmore", "Lat": "50.95784", "Long": "-2.13093", "River": "Groundwater Level", "Catchment": "Dorset Stour", "Status": "http://environment.data.gov.uk/flood-monitoring/def/core/statusActive", "Measure": "Water Level", "Qualifier": "Groundwater", "Unit": "mAOD", "County": "Dorset"}, {"StationID": "SJ56_45E", "Label": "Ashton", "Town": "No town available", "Lat": "No lat available", "Long": "No long available", "River": "No river name available", "Catchment": "No catchment name available", "Status": "No status available", "Measure": "Water Level", "Qualifier": "Groundwater", "Unit": "m", "County": "Cheshire"}, {"StationID": "44208", "Label": "Ashton Farm", "Town": "Martinstown Or Winterborne St Martin", "Lat": "50.690658", "Long": "-2.479859", "River": "Groundwater Level", "Catchment": "Frome, Piddle, Poole Harbour and Purbeck", "Status": "http://environment.data.gov.uk/flood-monitoring/def/core/statusActive", "Measure": "Water Level", "Qualifier": "Groundwater, Stage", "Unit": "mAOD, mAOD", "County": "Dorset"}, {"StationID": "53184", "Label": "Ashton Vale", "Town": "Leigh Woods", "Lat": "51.439017", "Long": "-2.62578", "River": "River Avon", "Catchment": "Bristol Avon Little Avon Axe and North Somerset St", "Status": "http://environment.data.gov.uk/flood-monitoring/def/core/statusActive", "Measure": "Water Level", "Qualifier": "Stage", "Unit": "mASD", "County": "Bristol"}, {"StationID": "692726", "Label": "Ashton Weir", "Town": "Urmston", "Lat": "53.438308", "Long": "-2.344072", "River": "River Mersey", "Catchment": "Upper Mersey", "Status": "http://environment.data.gov.uk/flood-monitoring/def/core/statusActive", "Measure": "Flow, Water Level", "Qualifier": ", Stage", "Unit": "m3/s, m", "County": "Greater Manchester"}, {"StationID": "E14540", "Label": "Ashurst Bridge", "Town": "Ashurst Bridge", "Lat": "50.910849", "Long": "-1.510651", "River": "Bartley Water", "Catchment": "New Forest", "Status": "http://environment.data.gov.uk/flood-monitoring/def/core/statusActive", "Measure": "Water Level", "Qualifier": "Stage", "Unit": "mAOD", "County": "Hampshire"}, {"StationID": "4124", "Label": "Aston Bridge", "Town": "Sudbury", "Lat": "52.877141", "Long": "-1.759128", "River": "River Dove", "Catchment": "Dove", "Status": "http://environment.data.gov.uk/flood-monitoring/def/core/statusActive", "Measure": "Water Level", "Qualifier": "Stage", "Unit": "mASD", "County": "Staffordshire"}, {"StationID": "4182", "Label": "Astonfields", "Town": "No town available", "Lat": "52.817973", "Long": "-2.113758", "River": "Sandyford Brook", "Catchment": "Staffordshire Trent Valley", "Status": "http://environment.data.gov.uk/flood-monitoring/def/core/statusActive", "Measure": "Water Level", "Qualifier": "Stage", "Unit": "mASD", "County": "Staffordshire"}, {"StationID": "E14741", "Label": "Atherfield", "Town": "Atherfield", "Lat": "50.61912", "Long": "-1.353938", "River": "Atherfield Brook", "Catchment": "Isle of Wight", "Status": "http://environment.data.gov.uk/flood-monitoring/def/core/statusActive", "Measure": "Water Level", "Qualifier": "Stage", "Unit": "mASD", "County": "Isle of Wight"}, {"StationID": "693012", "Label": "Atherton Shakerley Road", "Town": "No town available", "Lat": "53.516028", "Long": "-2.473719", "River": "No river name available", "Catchment": "No catchment name available", "Status": "No status available", "Measure": "Water Level", "Qualifier": "Stage", "Unit": "m", "County": "Greater Manchester"}, {"StationID": "693013", "Label": "Atherton Woodlands Drive", "Town": "No town available", "Lat": "53.534764", "Long": "-2.477157", "River": "No river name available", "Catchment": "No catchment name available", "Status": "No status available", "Measure": "Water Level", "Qualifier": "Stage", "Unit": "m", "County": "Greater Manchester"}, {"StationID": "692810", "Label": "Athol Road", "Town": "No town available", "Lat": "53.439852", "Long": "-2.246761", "River": "No river name available", "Catchment": "No catchment name available", "Status": "No status available", "Measure": "Water Level", "Qualifier": "Downstream Stage, Stage", "Unit": "m, m", "County": "Greater Manchester"}, {"StationID": "680301", "Label": "Audlem", "Town": "Coxbank", "Lat": "52.983736", "Long": "-2.518888", "River": "River Weaver", "Catchment": "Weaver and Dane", "Status": "http://environment.data.gov.uk/flood-monitoring/def/core/statusActive", "Measure": "Water Level", "Qualifier": "Stage", "Unit": "m", "County": "Cheshire"}, {"StationID": "46122", "Label": "Austins Bridge", "Town": "Buckfastleigh", "Lat": "50.479033", "Long": "-3.761402", "River": "River Dart", "Catchment": "Teign Torbay and South Hams", "Status": "http://environment.data.gov.uk/flood-monitoring/def/core/statusActive", "Measure": "Water Level", "Qualifier": "Stage", "Unit": "m", "County": "Devon"}, {"StationID": "E72639", "Label": "Avonmouth Portbury", "Town": "Avonmouth", "Lat": "51.49999", "Long": "-2.728468", "River": "Tide", "Catchment": "England - South Coast", "Status": "http://environment.data.gov.uk/flood-monitoring/def/core/statusActive", "Measure": "Water Level", "Qualifier": "Tidal Level", "Unit": "mAOD", "County": "Bristol"}, {"StationID": "E72624", "Label": "Avonmouth Portbury", "Town": "No town available", "Lat": "51.5", "Long": "-2.72847", "River": "No river name available", "Catchment": "No catchment name available", "Status": "No status available", "Measure": "Water Level", "Qualifier": "Tidal Level", "Unit": "m", "County": "Bristol"}, {"StationID": "E72623", "Label": "Avonmouth Portbury", "Town": "No town available", "Lat": "51.5", "Long": "-2.728", "River": "No river name available", "Catchment": "No catchment name available", "Status": "No status available", "Measure": "Water Level", "Qualifier": "Tidal Level", "Unit": "mm", "County": "Bristol"}, {"StationID": "E81939", "Label": "Axminster Wilhay Lane", "Town": "No town available", "Lat": "50.788575", "Long": "-2.995254", "River": "Mill Brook", "Catchment": "Otter, Sid, Axe and Lim", "Status": "http://environment.data.gov.uk/flood-monitoring/def/core/statusActive", "Measure": "Water Level", "Qualifier": "Stage", "Unit": "m", "County": "Devon"}, {"StationID": "1925TH", "Label": "Aylesbury", "Town": "Aylesbury", "Lat": "51.817792", "Long": "-0.801624", "River": "Bear Brook", "Catchment": "Cherwell Thame and Wye", "Status": "http://environment.data.gov.uk/flood-monitoring/def/core/statusActive", "Measure": "Water Level", "Qualifier": "Stage", "Unit": "mASD", "County": "Buckinghamshire"}, {"StationID": "1911TH", "Label": "Aylesbury Thame", "Town": "Stone", "Lat": "51.826251", "Long": "-0.856541", "River": "River Thame", "Catchment": "Cherwell Thame and Wye", "Status": "http://environment.data.gov.uk/flood-monitoring/def/core/statusActive", "Measure": "Water Level", "Qualifier": "Stage", "Unit": "mASD", "County": "Buckinghamshire"}, {"StationID": "E4412", "Label": "Aylesford Stream", "Town": "Park Farm", "Lat": "51.133674", "Long": "0.880127", "River": "Old Mill Stream", "Catchment": "Stour", "Status": "http://environment.data.gov.uk/flood-monitoring/def/core/statusActive", "Measure": "Water Level", "Qualifier": "Stage", "Unit": "mASD", "County": "Kent"}, {"StationID": "E21005", "Label": "Babraham", "Town": "Babraham", "Lat": "52.131206", "Long": "0.205231", "River": "River Granta", "Catchment": "Cam and Ely Ouse (Including South Level)", "Status": "http://environment.data.gov.uk/flood-monitoring/def/core/statusActive", "Measure": "Water Level", "Qualifier": "Stage", "Unit": "m", "County": "Cambridgeshire"}, {"StationID": "4066", "Label": "Bacons End", "Town": "Marston Green", "Lat": "52.484208", "Long": "-1.731944", "River": "River Cole", "Catchment": "Tame Anker and Mease", "Status": "http://environment.data.gov.uk/flood-monitoring/def/core/statusActive", "Measure": "Water Level", "Qualifier": "Stage", "Unit": "mASD", "County": "West Midlands"}, {"StationID": "43176", "Label": "Badbury Rings", "Town": "No town available", "Lat": "50.819754", "Long": "-2.049215", "River": "Groundwater Level", "Catchment": "Dorset Stour", "Status": "http://environment.data.gov.uk/flood-monitoring/def/core/statusActive", "Measure": "Water Level", "Qualifier": "Groundwater", "Unit": "mAOD", "County": "Dorset"}, {"StationID": "2264TH", "Label": "Bagnor", "Town": "Bagnor", "Lat": "51.422436", "Long": "-1.350461", "River": "Winterbourne Stream", "Catchment": "Vale of White Horse", "Status": "http://environment.data.gov.uk/flood-monitoring/def/core/statusActive", "Measure": "Water Level", "Qualifier": "Stage", "Unit": "mASD", "County": "Berkshire"}, {"StationID": "2941TH", "Label": "Bagshot", "Town": "Bagshot", "Lat": "51.361518", "Long": "-0.689296", "River": "Windle Brook", "Catchment": "Bournes", "Status": "http://environment.data.gov.uk/flood-monitoring/def/core/statusActive", "Measure": "Water Level", "Qualifier": "Stage", "Unit": "mASD", "County": "Surrey"}, {"StationID": "L2208", "Label": "Bainbridge", "Town": "Bainbridge", "Lat": "54.311836", "Long": "-2.102939", "River": "River Ure", "Catchment": "Swale, Ure, Nidd and Upper Ouse", "Status": "http://environment.data.gov.uk/flood-monitoring/def/core/statusActive", "Measure": "Water Level", "Qualifier": "Stage", "Unit": "m", "County": "North Yorkshire"}, {"StationID": "52158", "Label": "Baltmoor Wall Saltmoor Barrier", "Town": "East Lyng", "Lat": "51.059531", "Long": "-2.940994", "River": "Saltmoor Main Drain", "Catchment": "Parrett, Brue and West Somerset Streams", "Status": "http://environment.data.gov.uk/flood-monitoring/def/core/statusActive", "Measure": "Water Level", "Qualifier": "Stage, Stage", "Unit": "m, mAOD", "County": "Somerset"}, {"StationID": "700515", "Label": "Bamber Bridge", "Town": "Bamber Bridge", "Lat": "53.724643", "Long": "-2.670129", "River": "River Lostock", "Catchment": "Ribble Douglas and Crossens", "Status": "http://environment.data.gov.uk/flood-monitoring/def/core/statusActive", "Measure": "Water Level", "Qualifier": "Stage", "Unit": "m", "County": "Lancashire"}, {"StationID": "0913TH", "Label": "Bampton", "Town": "Bampton", "Lat": "51.72466", "Long": "-1.54887", "River": "Shill Brook", "Catchment": "Cotswolds", "Status": "http://environment.data.gov.uk/flood-monitoring/def/core/statusActive", "Measure": "Water Level", "Qualifier": "Stage", "Unit": "mASD", "County": "Oxfordshire"}, {"StationID": "45159", "Label": "Bampton Bridge", "Town": "Bampton", "Lat": "50.989182", "Long": "-3.484134", "River": "River Batherm", "Catchment": "Exe", "Status": "http://environment.data.gov.uk/flood-monitoring/def/core/statusActive", "Measure": "Water Level", "Qualifier": "Stage", "Unit": "m", "County": "Devon"}, {"StationID": "761260", "Label": "Bampton Grange", "Town": "Bampton Grange", "Lat": "54.555577", "Long": "-2.743431", "River": "River Lowther", "Catchment": "Eden and Esk", "Status": "http://environment.data.gov.uk/flood-monitoring/def/core/statusActive", "Measure": "Water Level", "Qualifier": "Stage", "Unit": "m", "County": "Cumbria"}, {"StationID": "1420TH", "Label": "Banbury", "Town": "Banbury", "Lat": "52.066379", "Long": "-1.333286", "River": "River Cherwell", "Catchment": "Cherwell Thame and Wye", "Status": "http://environment.data.gov.uk/flood-monitoring/def/core/statusActive", "Measure": "Water Level", "Qualifier": "Downstream Stage, Stage", "Unit": "mASD, mASD", "County": "Oxfordshire"}, {"StationID": "44243", "Label": "Bank Barrow", "Town": "Bank Barrow", "Lat": "50.665692", "Long": "-2.422525", "River": "Groundwater Level", "Catchment": "Frome, Piddle, Poole Harbour and Purbeck", "Status": "http://environment.data.gov.uk/flood-monitoring/def/core/statusActive", "Measure": "Water Level", "Qualifier": "Groundwater", "Unit": "mAOD", "County": "Dorset"}, {"StationID": "50123", "Label": "Barbrook Bridge", "Town": "Barbrook", "Lat": "51.213836", "Long": "-3.841064", "River": "West Lyn River", "Catchment": "Taw and North Devon Streams", "Status": "http://environment.data.gov.uk/flood-monitoring/def/core/statusActive", "Measure": "Water Level", "Qualifier": "Stage", "Unit": "m", "County": "Devon"}, {"StationID": "E8312", "Label": "Barcombe", "Town": "Barcombe", "Lat": "50.915667", "Long": "0.043425", "River": "River Ouse", "Catchment": "Ouse", "Status": "http://environment.data.gov.uk/flood-monitoring/def/core/statusSuspended", "Measure": "Water Level", "Qualifier": "Stage", "Unit": "mASD", "County": "East Sussex"}, {"StationID": "E8371", "Label": "Barcombe", "Town": "Barcombe", "Lat": "50.915549", "Long": "0.037303", "River": "River Ouse", "Catchment": "Ouse", "Status": "http://environment.data.gov.uk/flood-monitoring/def/core/statusActive", "Measure": "Water Level", "Qualifier": "Downstream Stage, Stage", "Unit": "mAOD, mAOD", "County": "East Sussex"}, {"StationID": "E8654", "Label": "Barcombe Gates", "Town": "Barcombe", "Lat": "50.91492", "Long": "0.038854", "River": "River Ouse", "Catchment": "Ouse", "Status": "http://environment.data.gov.uk/flood-monitoring/def/core/statusActive", "Measure": "Water Level", "Qualifier": "Stage", "Unit": "mASD", "County": "East Sussex"}, {"StationID": "712113", "Label": "Barden Lane", "Town": "Brierfield", "Lat": "53.811466", "Long": "-2.248409", "River": "Pendle Water", "Catchment": "Ribble Douglas and Crossens", "Status": "http://environment.data.gov.uk/flood-monitoring/def/core/statusActive", "Measure": "Water Level", "Qualifier": "Stage", "Unit": "m", "County": "Lancashire"}, {"StationID": "E40411", "Label": "Bardney", "Town": "Bardney", "Lat": "53.213749", "Long": "-0.345212", "River": "River Witham", "Catchment": "Witham", "Status": "http://environment.data.gov.uk/flood-monitoring/def/core/statusActive", "Measure": "Water Level", "Qualifier": "Stage, Stage", "Unit": "mAOD, mASD", "County": "Lincolnshire"}, {"StationID": "L2043", "Label": "Bardsey", "Town": "Bardsey", "Lat": "53.883728", "Long": "-1.440943", "River": "Bardsey Beck", "Catchment": "Wharfe and Lower Ouse", "Status": "http://environment.data.gov.uk/flood-monitoring/def/core/statusActive", "Measure": "Water Level", "Qualifier": "Stage", "Unit": "m", "County": "West Yorkshire"}, {"StationID": "E2273", "Label": "Barford Bridge", "Town": "Newton", "Lat": "52.43909", "Long": "-0.734823", "River": "River Ise", "Catchment": "Nene", "Status": "http://environment.data.gov.uk/flood-monitoring/def/core/statusActive", "Measure": "Water Level", "Qualifier": "Stage", "Unit": "mASD", "County": "Northamptonshire"}, {"StationID": "E2900-anglian", "Label": "Bargate Weir", "Town": "Boultham", "Lat": "53.213742", "Long": "-0.55188", "River": "River Witham", "Catchment": "Witham", "Status": "http://environment.data.gov.uk/flood-monitoring/def/core/statusActive", "Measure": "Water Level", "Qualifier": "Stage", "Unit": "mASD", "County": "Lincolnshire"}, {"StationID": "BB_EAST_UR", "Label": "Barking Barrier", "Town": "No town available", "Lat": "51.515594", "Long": "0.097044", "River": "No river name available", "Catchment": "No catchment name available", "Status": "No status available", "Measure": "Water Level", "Qualifier": "Tidal Level", "Unit": "mAOD", "County": "Greater London"}, {"StationID": "BB_WEST_DR", "Label": "Barking Barrier", "Town": "No town available", "Lat": "51.515594", "Long": "0.097044", "River": "No river name available", "Catchment": "No catchment name available", "Status": "No status available", "Measure": "Water Level", "Qualifier": "Tidal Level", "Unit": "mAOD", "County": "Greater London"}, {"StationID": "BB_WEST_UR", "Label": "Barking Barrier", "Town": "No town available", "Lat": "51.515594", "Long": "0.097044", "River": "No river name available", "Catchment": "No catchment name available", "Status": "No status available", "Measure": "Water Level", "Qualifier": "Tidal Level", "Unit": "mAOD", "County": "Greater London"}, {"StationID": "BB_EAST_DR", "Label": "Barking Barrierr", "Town": "No town available", "Lat": "51.515594", "Long": "0.097044", "River": "No river name available", "Catchment": "No catchment name available", "Status": "No status available", "Measure": "Water Level", "Qualifier": "Tidal Level", "Unit": "mAOD", "County": "Greater London"}, {"StationID": "L2801", "Label": "Barmby", "Town": "Barmby Barrage Upstream", "Lat": "53.74959", "Long": "-0.969053", "River": "River Derwent", "Catchment": "Derwent", "Status": "http://environment.data.gov.uk/flood-monitoring/def/core/statusActive", "Measure": "Water Level", "Qualifier": "Stage, Stage", "Unit": "---, mAOD", "County": "East Riding of Yorkshire"}, {"StationID": "L2400", "Label": "Barmby", "Town": "No town available", "Lat": "53.749583", "Long": "-0.969265", "River": "No river name available", "Catchment": "No catchment name available", "Status": "No status available", "Measure": "Water Level", "Qualifier": "Downstream Stage", "Unit": "mAOD", "County": "East Riding of Yorkshire"}, {"StationID": "F3504", "Label": "Barnard Castle", "Town": "Barnard Castle", "Lat": "54.544622", "Long": "-1.928854", "River": "River Tees", "Catchment": "Tees", "Status": "http://environment.data.gov.uk/flood-monitoring/def/core/statusActive", "Measure": "Water Level", "Qualifier": "Stage", "Unit": "m", "County": "Durham"}, {"StationID": "4091TH", "Label": "Barnes", "Town": "Barnes", "Lat": "51.47009", "Long": "-0.245065", "River": "Beverley Brook", "Catchment": "London", "Status": "http://environment.data.gov.uk/flood-monitoring/def/core/statusActive", "Measure": "Water Level", "Qualifier": "Stage", "Unit": "mASD", "County": "Greater London"}, {"StationID": "E10924", "Label": "Barnham", "Town": "Barnham", "Lat": "50.831182", "Long": "-0.638259", "River": "Barnham Rife", "Catchment": "Arun and Western Streams", "Status": "http://environment.data.gov.uk/flood-monitoring/def/core/statusActive", "Measure": "Water Level", "Qualifier": "Stage", "Unit": "mAOD", "County": "West Sussex"}, {"StationID": "F0806", "Label": "Barnsley", "Town": "Barnsley", "Lat": "53.560696", "Long": "-1.473078", "River": "River Dearne", "Catchment": "Don and Rother", "Status": "http://environment.data.gov.uk/flood-monitoring/def/core/statusActive", "Measure": "Water Level", "Qualifier": "Stage", "Unit": "m", "County": "South Yorkshire"}, {"StationID": "50198", "Label": "Barnstaple", "Town": "Barnstaple", "Lat": "51.080046", "Long": "-4.064537", "River": "River Taw", "Catchment": "Taw and North Devon Streams", "Status": "http://environment.data.gov.uk/flood-monitoring/def/core/statusActive", "Measure": "Water Level", "Qualifier": "Tidal Level", "Unit": "mAOD", "County": "Devon"}, {"StationID": "NY54_56", "Label": "Baronwood", "Town": "No town available", "Lat": "No lat available", "Long": "No long available", "River": "No river name available", "Catchment": "No catchment name available", "Status": "No status available", "Measure": "Water Level", "Qualifier": "Groundwater", "Unit": "m", "County": "Cumbria"}, {"StationID": "E861", "Label": "Bartley Mill", "Town": "Wadhurst", "Lat": "51.097082", "Long": "0.330342", "River": "River Teise", "Catchment": "Medway", "Status": "http://environment.data.gov.uk/flood-monitoring/def/core/statusActive", "Measure": "Water Level", "Qualifier": "Stage", "Unit": "mASD", "County": "East Sussex"}, {"StationID": "SJ45_168", "Label": "Barton 2 Obs", "Town": "No town available", "Lat": "No lat available", "Long": "No long available", "River": "No river name available", "Catchment": "No catchment name available", "Status": "No status available", "Measure": "Water Level", "Qualifier": "Groundwater", "Unit": "m", "County": "Cheshire"}, {"StationID": "E21563", "Label": "Barton Broad", "Town": "Neatishead", "Lat": "52.735281", "Long": "1.480458", "River": "River Ant", "Catchment": "Broadland Rivers", "Status": "http://environment.data.gov.uk/flood-monitoring/def/core/statusActive", "Measure": "Water Level", "Qualifier": "Tidal Level", "Unit": "mAOD", "County": "Norfolk"}, {"StationID": "E60201", "Label": "Barton Mills Sluice", "Town": "Barton Mills", "Lat": "52.335121", "Long": "0.531859", "River": "River Lark", "Catchment": "Cam and Ely Ouse (Including South Level)", "Status": "http://environment.data.gov.uk/flood-monitoring/def/core/statusActive", "Measure": "Water Level", "Qualifier": "Stage", "Unit": "mASD", "County": "Suffolk"}, {"StationID": "4061", "Label": "Basford Bridge", "Town": "Cheddleton", "Lat": "53.06433", "Long": "-2.026812", "River": "River Churnet", "Catchment": "Dove", "Status": "http://environment.data.gov.uk/flood-monitoring/def/core/statusActive", "Measure": "Water Level", "Qualifier": "Downstream Stage, Stage", "Unit": "mASD, mASD", "County": "Staffordshire"}, {"StationID": "47130", "Label": "Bastreet", "Town": "Trebartha", "Lat": "50.560822", "Long": "-4.480182", "River": "Withy Brook", "Catchment": "Tamar", "Status": "http://environment.data.gov.uk/flood-monitoring/def/core/statusActive", "Measure": "Water Level", "Qualifier": "Stage", "Unit": "m", "County": "Cornwall"}, {"StationID": "F2311", "Label": "Bat Bridge", "Town": "Cundall", "Lat": "54.145714", "Long": "-1.36005", "River": "Cundall Beck", "Catchment": "Swale, Ure, Nidd and Upper Ouse", "Status": "http://environment.data.gov.uk/flood-monitoring/def/core/statusActive", "Measure": "Water Level", "Qualifier": "Stage", "Unit": "m", "County": "North Yorkshire"}, {"StationID": "53127", "Label": "Bath Destructor Bridge", "Town": "Twerton", "Lat": "51.38438", "Long": "-2.37652", "River": "River Avon", "Catchment": "Bristol Avon Little Avon Axe and North Somerset St", "Status": "http://environment.data.gov.uk/flood-monitoring/def/core/statusActive", "Measure": "Water Level", "Qualifier": "Stage", "Unit": "mASD", "County": "Somerset"}, {"StationID": "53129", "Label": "Bathford", "Town": "Batheaston", "Lat": "51.401613", "Long": "-2.310449", "River": "River Avon", "Catchment": "Bristol Avon Little Avon Axe and North Somerset St", "Status": "http://environment.data.gov.uk/flood-monitoring/def/core/statusActive", "Measure": "Water Level", "Qualifier": "Stage", "Unit": "m", "County": "Somerset"}, {"StationID": "52162", "Label": "Bathpool Outfall", "Town": "Bathpool", "Lat": "51.025799", "Long": "-3.066732", "River": "River Tone", "Catchment": "Parrett, Brue and West Somerset Streams", "Status": "http://environment.data.gov.uk/flood-monitoring/def/core/statusActive", "Measure": "Water Level", "Qualifier": "Downstream Stage, Stage", "Unit": "m, m", "County": "Somerset"}, {"StationID": "52161", "Label": "Bathpool Outfall", "Town": "Bathpool", "Lat": "51.02589", "Long": "-3.066549", "River": "Old River Tone", "Catchment": "Parrett, Brue and West Somerset Streams", "Status": "http://environment.data.gov.uk/flood-monitoring/def/core/statusActive", "Measure": "Water Level", "Qualifier": "Stage", "Unit": "m", "County": "Somerset"}, {"StationID": "L1376", "Label": "Batley Carlinghow", "Town": "Batley Carlinghow  (up stream)", "Lat": "53.71811", "Long": "-1.638949", "River": "Batley Beck", "Catchment": "Aire and Calder", "Status": "http://environment.data.gov.uk/flood-monitoring/def/core/statusActive", "Measure": "Water Level", "Qualifier": "Stage, Stage", "Unit": "---, m", "County": "West Yorkshire"}, {"StationID": "L1374", "Label": "Batley Savile Street", "Town": "Batley Savile Street", "Lat": "53.699596", "Long": "-1.630383", "River": "Batley Beck", "Catchment": "Aire and Calder", "Status": "http://environment.data.gov.uk/flood-monitoring/def/core/statusActive", "Measure": "Water Level", "Qualifier": "Downstream Stage, Downstream Stage, Stage, Stage", "Unit": "---, m, ---, m", "County": "West Yorkshire"}, {"StationID": "E22889", "Label": "Beach's Mill", "Town": "Chelmsford", "Lat": "51.737776", "Long": "0.446263", "River": "River Can", "Catchment": "Essex", "Status": "http://environment.data.gov.uk/flood-monitoring/def/core/statusActive", "Measure": "Water Level", "Qualifier": "Stage", "Unit": "m", "County": "Essex"}, {"StationID": "690200", "Label": "Beal Bridge", "Town": "Newhey", "Lat": "53.59901", "Long": "-2.095119", "River": "River Beal", "Catchment": "Northern Manchester", "Status": "http://environment.data.gov.uk/flood-monitoring/def/core/statusActive", "Measure": "Water Level", "Qualifier": "Stage", "Unit": "m", "County": "Greater Manchester"}, {"StationID": "F1806", "Label": "Beal Weir Bridge", "Town": "Beal", "Lat": "53.723209", "Long": "-1.198257", "River": "River Aire", "Catchment": "Aire and Calder", "Status": "http://environment.data.gov.uk/flood-monitoring/def/core/statusActive", "Measure": "Water Level", "Qualifier": "Stage, Stage", "Unit": "---, m", "County": "North Yorkshire"}, {"StationID": "47139", "Label": "Bealsmill", "Town": "Bealsmill", "Lat": "50.570244", "Long": "-4.318502", "River": "River Inny", "Catchment": "Tamar", "Status": "http://environment.data.gov.uk/flood-monitoring/def/core/statusActive", "Measure": "Water Level", "Qualifier": "Stage", "Unit": "m", "County": "Cornwall"}, {"StationID": "680302", "Label": "Beam Bridge", "Town": "No town available", "Lat": "53.077612", "Long": "-2.522479", "River": "No river name available", "Catchment": "No catchment name available", "Status": "No status available", "Measure": "Water Level", "Qualifier": "Stage", "Unit": "m", "County": "Cheshire"}, {"StationID": "44131", "Label": "Beaminster", "Town": "Beaminster", "Lat": "50.807196", "Long": "-2.739279", "River": "River Brit", "Catchment": "West Dorset Streams", "Status": "http://environment.data.gov.uk/flood-monitoring/def/core/statusActive", "Measure": "Water Level", "Qualifier": "Stage", "Unit": "m", "County": "Dorset"}, {"StationID": "E14330", "Label": "Beaulieu", "Town": "Beaulieu", "Lat": "50.819049", "Long": "-1.450824", "River": "Tide", "Catchment": "New Forest", "Status": "http://environment.data.gov.uk/flood-monitoring/def/core/statusActive", "Measure": "Water Level", "Qualifier": "Downstream Stage, Tidal Level", "Unit": "mAOD, mAOD", "County": "Hampshire"}, {"StationID": "E14331", "Label": "Beaulieu", "Town": "Beaulieu", "Lat": "50.819258", "Long": "-1.451418", "River": "Beaulieu River", "Catchment": "New Forest", "Status": "http://environment.data.gov.uk/flood-monitoring/def/core/statusActive", "Measure": "Water Level", "Qualifier": "Stage", "Unit": "mAOD", "County": "Hampshire"}, {"StationID": "E27431", "Label": "Beccles Quay", "Town": "Beccles", "Lat": "52.464571", "Long": "1.564233", "River": "River Waveney", "Catchment": "Broadland Rivers", "Status": "http://environment.data.gov.uk/flood-monitoring/def/core/statusActive", "Measure": "Water Level", "Qualifier": "Tidal Level", "Unit": "mAOD", "County": "Suffolk"}, {"StationID": "E21119", "Label": "Beck Bridge", "Town": "Isleham", "Lat": "52.332181", "Long": "0.438278", "River": "River Kennett", "Catchment": "Cam and Ely Ouse (Including South Level)", "Status": "http://environment.data.gov.uk/flood-monitoring/def/core/statusActive", "Measure": "Water Level", "Qualifier": "Stage", "Unit": "m", "County": "Suffolk"}, {"StationID": "4345TH", "Label": "Beckenham", "Town": "Beckenham", "Lat": "51.406058", "Long": "-0.024366", "River": "The Beck", "Catchment": "London", "Status": "http://environment.data.gov.uk/flood-monitoring/def/core/statusActive", "Measure": "Water Level", "Qualifier": "Stage", "Unit": "mASD", "County": "Greater London"}, {"StationID": "4326TH", "Label": "Beckenham Park", "Town": "Grove Park", "Lat": "51.422952", "Long": "-0.007672", "River": "River Ravensbourne", "Catchment": "London", "Status": "http://environment.data.gov.uk/flood-monitoring/def/core/statusActive", "Measure": "Water Level", "Qualifier": "Stage", "Unit": "mASD", "County": "Greater London"}, {"StationID": "024004", "Label": "Bedburn", "Town": "Hamsterley", "Lat": "54.6847", "Long": "-1.818483", "River": "Bedburn Beck", "Catchment": "Wear", "Status": "http://environment.data.gov.uk/flood-monitoring/def/core/statusActive", "Measure": "Water Level", "Qualifier": "Stage", "Unit": "m", "County": "Durham"}, {"StationID": "4150TH", "Label": "Beddington Park", "Town": "Beddington", "Lat": "51.373583", "Long": "-0.138986", "River": "River Wandle", "Catchment": "London", "Status": "http://environment.data.gov.uk/flood-monitoring/def/core/statusActive", "Measure": "Water Level", "Qualifier": "Stage", "Unit": "mASD", "County": "Greater London"}, {"StationID": "E21609", "Label": "Bedford", "Town": "Bedford", "Lat": "52.133733", "Long": "-0.460042", "River": "River Great Ouse", "Catchment": "Upper and Bedford Ouse", "Status": "http://environment.data.gov.uk/flood-monitoring/def/core/statusActive", "Measure": "Water Level", "Qualifier": "Stage", "Unit": "mASD", "County": "Bedfordshire"}, {"StationID": "E1363", "Label": "Bedford Road Sluice", "Town": "Great Houghton", "Lat": "52.229163", "Long": "-0.868182", "River": "River Nene", "Catchment": "Nene", "Status": "http://environment.data.gov.uk/flood-monitoring/def/core/statusActive", "Measure": "Water Level", "Qualifier": "Stage", "Unit": "mASD", "County": "Northamptonshire"}, {"StationID": "2293TH", "Label": "Beech Hill", "Town": "Grazeley", "Lat": "51.385195", "Long": "-1.002649", "River": "Foudry Brook", "Catchment": "Vale of White Horse", "Status": "http://environment.data.gov.uk/flood-monitoring/def/core/statusActive", "Measure": "Water Level", "Qualifier": "Stage, Stage", "Unit": "---, mASD", "County": "Berkshire"}, {"StationID": "E9140", "Label": "Beeding Bridge", "Town": "Upper Beeding", "Lat": "50.882836", "Long": "-0.306828", "River": "River Adur", "Catchment": "Adur", "Status": "http://environment.data.gov.uk/flood-monitoring/def/core/statusActive", "Measure": "Water Level", "Qualifier": "Stage, Stage", "Unit": "mAOD, mASD", "County": "West Sussex"}, {"StationID": "52157", "Label": "Beerwall Upstream", "Town": "Othery", "Lat": "51.079805", "Long": "-2.869413", "River": "River Sowy", "Catchment": "Parrett, Brue and West Somerset Streams", "Status": "http://environment.data.gov.uk/flood-monitoring/def/core/statusActive", "Measure": "Water Level", "Qualifier": "Stage", "Unit": "m", "County": "Somerset"}, {"StationID": "731013", "Label": "Beetham Weir", "Town": "Beetham", "Lat": "54.218531", "Long": "-2.774107", "River": "River Bela", "Catchment": "South Cumbria", "Status": "http://environment.data.gov.uk/flood-monitoring/def/core/statusActive", "Measure": "Water Level", "Qualifier": "Stage", "Unit": "m", "County": "Cumbria"}, {"StationID": "51107", "Label": "Beggearn Huish", "Town": "Washford", "Lat": "51.14633", "Long": "-3.373795", "River": "Washford River", "Catchment": "Parrett, Brue and West Somerset Streams", "Status": "http://environment.data.gov.uk/flood-monitoring/def/core/statusActive", "Measure": "Water Level", "Qualifier": "Stage", "Unit": "m", "County": "Somerset"}, {"StationID": "E4060", "Label": "Bekesbourne", "Town": "Bekesbourne", "Lat": "51.258144", "Long": "1.145929", "River": "Nailbourne", "Catchment": "Stour", "Status": "http://environment.data.gov.uk/flood-monitoring/def/core/statusActive", "Measure": "Water Level", "Qualifier": "Stage", "Unit": "mASD", "County": "Kent"}, {"StationID": "021041", "Label": "Belford", "Town": "Belford", "Lat": "55.598101", "Long": "-1.830134", "River": "Belford Burn", "Catchment": "Till", "Status": "http://environment.data.gov.uk/flood-monitoring/def/core/statusActive", "Measure": "Water Level", "Qualifier": "Stage", "Unit": "m", "County": "Northumberland"}, {"StationID": "SD54_18D", "Label": "Bell Lane", "Town": "No town available", "Lat": "No lat available", "Long": "No long available", "River": "No river name available", "Catchment": "No catchment name available", "Status": "No status available", "Measure": "Water Level", "Qualifier": "Groundwater", "Unit": "m", "County": "Lancashire"}, {"StationID": "E8730", "Label": "Bell Lane Grill", "Town": "Lewes", "Lat": "50.869751", "Long": "4.3e-05", "River": "Winterbourne Stream", "Catchment": "Ouse", "Status": "http://environment.data.gov.uk/flood-monitoring/def/core/statusActive", "Measure": "Water Level", "Qualifier": "Stage", "Unit": "mAOD", "County": "East Sussex"}, {"StationID": "2702TH", "Label": "Bell Weir", "Town": "Hythe End", "Lat": "51.438166", "Long": "-0.537257", "River": "River Thames", "Catchment": "Thames from Hurley to Teddington", "Status": "http://environment.data.gov.uk/flood-monitoring/def/core/statusActive", "Measure": "Water Level", "Qualifier": "Downstream Stage, Stage, Stage", "Unit": "mASD, ---, mASD", "County": "Surrey"}, {"StationID": "46123", "Label": "Bellever", "Town": "Bellever", "Lat": "50.582293", "Long": "-3.898034", "River": "East Dart River", "Catchment": "Teign Torbay and South Hams", "Status": "http://environment.data.gov.uk/flood-monitoring/def/core/statusActive", "Measure": "Water Level", "Qualifier": "2", "Unit": "m", "County": "Devon"}, {"StationID": "023037", "Label": "Bellingham", "Town": "Bellingham", "Lat": "55.142852", "Long": "-2.261953", "River": "River North Tyne", "Catchment": "Tyne", "Status": "http://environment.data.gov.uk/flood-monitoring/def/core/statusActive", "Measure": "Water Level", "Qualifier": "Stage", "Unit": "m", "County": "Northumberland"}, {"StationID": "055002_TG_301", "Label": "Belmont", "Town": "Belmont", "Lat": "52.045084", "Long": "-2.752202", "River": "River Wye", "Catchment": "Wye", "Status": "http://environment.data.gov.uk/flood-monitoring/def/core/statusActive", "Measure": "Water Level", "Qualifier": "Stage", "Unit": "mASD", "County": "Herefordshire"}, {"StationID": "4684", "Label": "Belper", "Town": "Belper", "Lat": "53.029005", "Long": "-1.458345", "River": "Coppice Brook", "Catchment": "Derbyshire Derwent", "Status": "http://environment.data.gov.uk/flood-monitoring/def/core/statusActive", "Measure": "Water Level", "Qualifier": "Stage", "Unit": "mASD", "County": "Derbyshire"}, {"StationID": "E14993", "Label": "Bembridge", "Town": "St Helens", "Lat": "50.693632", "Long": "-1.107996", "River": "Eastern Yar", "Catchment": "Isle of Wight", "Status": "http://environment.data.gov.uk/flood-monitoring/def/core/statusActive", "Measure": "Water Level", "Qualifier": "Tidal Level", "Unit": "mAOD", "County": "Isle of Wight"}, {"StationID": "2001TH", "Label": "Benson Lock", "Town": "Benson", "Lat": "51.617191", "Long": "-1.116011", "River": "River Thames", "Catchment": "Vale of White Horse", "Status": "http://environment.data.gov.uk/flood-monitoring/def/core/statusActive", "Measure": "Water Level", "Qualifier": "Downstream Stage, Downstream Stage, Stage, Stage", "Unit": "---, mASD, ---, mASD", "County": "Oxfordshire"}, {"StationID": "724320", "Label": "Bentham Bridge", "Town": "High Bentham", "Lat": "54.113463", "Long": "-2.510184", "River": "River Wenning", "Catchment": "Lune and Wyre", "Status": "http://environment.data.gov.uk/flood-monitoring/def/core/statusActive", "Measure": "Water Level", "Qualifier": "Stage", "Unit": "m", "County": "North Yorkshire"}, {"StationID": "L0962", "Label": "Bentley Ings Screen", "Town": "Bentley Ings Screen", "Lat": "53.542867", "Long": "-1.127873", "River": "Fowler Bridge Drain", "Catchment": "Don and Rother", "Status": "http://environment.data.gov.uk/flood-monitoring/def/core/statusActive", "Measure": "Water Level", "Qualifier": ", Stage", "Unit": "mAOD, mAOD", "County": "South Yorkshire"}, {"StationID": "531192", "Label": "Berkeley", "Town": "Berkeley", "Lat": "51.686426", "Long": "-2.460679", "River": "Little Avon River", "Catchment": "Bristol Avon Little Avon Axe and North Somerset St", "Status": "http://environment.data.gov.uk/flood-monitoring/def/core/statusActive", "Measure": "Water Level", "Qualifier": "Stage", "Unit": "m", "County": "Gloucestershire"}, {"StationID": "021999", "Label": "Berwick", "Town": "Berwick", "Lat": "55.767093", "Long": "-2.005082", "River": "River Tweed", "Catchment": "Till", "Status": "http://environment.data.gov.uk/flood-monitoring/def/core/statusActive", "Measure": "Water Level", "Qualifier": "Tidal Level, Tidal Level", "Unit": "m, mAOD", "County": "Northumberland"}, {"StationID": "4081", "Label": "Bescot", "Town": "Walsall", "Lat": "52.560205", "Long": "-1.983428", "River": "River Tame", "Catchment": "Tame Anker and Mease", "Status": "http://environment.data.gov.uk/flood-monitoring/def/core/statusActive", "Measure": "Flow, Water Level", "Qualifier": ", Stage", "Unit": "m3/s, mASD", "County": "West Midlands"}, {"StationID": "2015", "Label": "Besford Bridge", "Town": "Pershore", "Lat": "52.114425", "Long": "-2.108012", "River": "Bow Brook", "Catchment": "Warwickshire Avon", "Status": "http://environment.data.gov.uk/flood-monitoring/def/core/statusActive", "Measure": "Water Level", "Qualifier": "Stage", "Unit": "mASD", "County": "Worcestershire"}, {"StationID": "690420", "Label": "Bessy Brook", "Town": "Bolton", "Lat": "53.574738", "Long": "-2.496394", "River": "Bessy Brook", "Catchment": "Northern Manchester", "Status": "http://environment.data.gov.uk/flood-monitoring/def/core/statusActive", "Measure": "Water Level", "Qualifier": "Stage", "Unit": "m", "County": "Greater Manchester"}, {"StationID": "L3204", "Label": "Beverley Shipyard", "Town": "Beverley", "Lat": "53.843243", "Long": "-0.399574", "River": "River Hull", "Catchment": "Hull and East Riding", "Status": "http://environment.data.gov.uk/flood-monitoring/def/core/statusActive", "Measure": "Water Level", "Qualifier": "Stage", "Unit": "mAOD", "County": "East Riding of Yorkshire"}, {"StationID": "L3207", "Label": "Beverley Waterside Pumping Station", "Town": "Beverley Waterside Pumping Station", "Lat": "53.83905", "Long": "-0.39525", "River": "Beverley and Barmston Drain", "Catchment": "Hull and East Riding", "Status": "http://environment.data.gov.uk/flood-monitoring/def/core/statusActive", "Measure": "Water Level", "Qualifier": "Stage, Stage", "Unit": "---, mAOD", "County": "East Riding of Yorkshire"}, {"StationID": "2001", "Label": "Bewdley", "Town": "Bewdley", "Lat": "52.383563", "Long": "-2.322438", "River": "River Severn", "Catchment": "Worcestershire Middle Severn", "Status": "http://environment.data.gov.uk/flood-monitoring/def/core/statusActive", "Measure": "Flow, Water Level", "Qualifier": ", Stage", "Unit": "m3/s, mASD", "County": "Worcestershire"}, {"StationID": "0660TH", "Label": "Bibury", "Town": "Bibury", "Lat": "51.754535", "Long": "-1.825522", "River": "River Coln", "Catchment": "Cotswolds", "Status": "http://environment.data.gov.uk/flood-monitoring/def/core/statusActive", "Measure": "Water Level", "Qualifier": "Stage", "Unit": "mASD", "County": "Gloucestershire"}, {"StationID": "46129", "Label": "Bickington", "Town": "Bickington", "Lat": "50.539272", "Long": "-3.702255", "River": "River Lemon", "Catchment": "Teign Torbay and South Hams", "Status": "http://environment.data.gov.uk/flood-monitoring/def/core/statusActive", "Measure": "Water Level", "Qualifier": "Stage", "Unit": "m", "County": "Devon"}, {"StationID": "SJ28_34", "Label": "Bidston Hill", "Town": "No town available", "Lat": "No lat available", "Long": "No long available", "River": "No river name available", "Catchment": "No catchment name available", "Status": "No status available", "Measure": "Water Level", "Qualifier": "Groundwater", "Unit": "m", "County": "Merseyside"}, {"StationID": "E19023", "Label": "Biggleswade", "Town": "Biggleswade", "Lat": "52.085111", "Long": "-0.267906", "River": "River Ivel", "Catchment": "Upper and Bedford Ouse", "Status": "http://environment.data.gov.uk/flood-monitoring/def/core/statusActive", "Measure": "Water Level", "Qualifier": "Stage", "Unit": "mASD", "County": "Bedfordshire"}, {"StationID": "E4483", "Label": "Billingborough Ousemere", "Town": "Billingborough", "Lat": "52.89634", "Long": "-0.340975", "River": "South Forty Foot Drain", "Catchment": "Witham", "Status": "http://environment.data.gov.uk/flood-monitoring/def/core/statusActive", "Measure": "Water Level", "Qualifier": "Stage", "Unit": "mASD", "County": "Lincolnshire"}, {"StationID": "E23036", "Label": "Billingford", "Town": "Oakley", "Lat": "52.359187", "Long": "1.182279", "River": "River Waveney", "Catchment": "Broadland Rivers", "Status": "http://environment.data.gov.uk/flood-monitoring/def/core/statusActive", "Measure": "Water Level", "Qualifier": "Stage", "Unit": "m", "County": "Norfolk"}, {"StationID": "L3915", "Label": "Billingham Pennington Close", "Town": "Billingham Pennington Close", "Lat": "54.616236", "Long": "-1.285486", "River": "Cowbridge Beck", "Catchment": "Tees", "Status": "http://environment.data.gov.uk/flood-monitoring/def/core/statusActive", "Measure": "Water Level", "Qualifier": "Stage", "Unit": "m", "County": "Durham"}, {"StationID": "E4803", "Label": "Billinghay", "Town": "Billinghay", "Lat": "53.077892", "Long": "-0.274288", "River": "Billinghay Skirth", "Catchment": "Witham", "Status": "http://environment.data.gov.uk/flood-monitoring/def/core/statusActive", "Measure": "Water Level", "Qualifier": "Stage", "Unit": "mASD", "County": "Lincolnshire"}, {"StationID": "E19035", "Label": "Bin Brook", "Town": "Cambridge", "Lat": "52.197227", "Long": "0.087527", "River": "Bin Brook", "Catchment": "Cam and Ely Ouse (Including South Level)", "Status": "http://environment.data.gov.uk/flood-monitoring/def/core/statusActive", "Measure": "Water Level", "Qualifier": "Stage", "Unit": "mASD", "County": "Cambridgeshire"}, {"StationID": "2620TH", "Label": "Binfield", "Town": "Binfield", "Lat": "51.433827", "Long": "-0.773574", "River": "The Cut", "Catchment": "Cut", "Status": "http://environment.data.gov.uk/flood-monitoring/def/core/statusActive", "Measure": "Water Level", "Qualifier": "Stage, Stage", "Unit": "---, mASD", "County": "Berkshire"}, {"StationID": "F1608", "Label": "Bingley", "Town": "Catcliffe Drain", "Lat": "53.85124", "Long": "-1.842838", "River": "River Aire", "Catchment": "Aire and Calder", "Status": "http://environment.data.gov.uk/flood-monitoring/def/core/statusActive", "Measure": "Water Level", "Qualifier": "Stage", "Unit": "m", "County": "West Yorkshire"}, {"StationID": "SJ38_82", "Label": "Birkenhead Park", "Town": "No town available", "Lat": "No lat available", "Long": "No long available", "River": "No river name available", "Catchment": "No catchment name available", "Status": "No status available", "Measure": "Water Level", "Qualifier": "Groundwater", "Unit": "m", "County": "Merseyside"}, {"StationID": "L1815", "Label": "Birkin Holme Washlands", "Town": "Broomfleet Weighton Lock", "Lat": "53.731594", "Long": "-1.147332", "River": "River Aire", "Catchment": "Aire and Calder", "Status": "http://environment.data.gov.uk/flood-monitoring/def/core/statusActive", "Measure": "Water Level", "Qualifier": "Stage", "Unit": "m", "County": "North Yorkshire"}, {"StationID": "L1303", "Label": "Birkwood", "Town": "Birkwood", "Lat": "53.709969", "Long": "-1.464095", "River": "River Calder", "Catchment": "Aire and Calder", "Status": "http://environment.data.gov.uk/flood-monitoring/def/core/statusActive", "Measure": "Water Level", "Qualifier": "Stage", "Unit": "m", "County": "West Yorkshire"}, {"StationID": "4662", "Label": "Birmingham Bournville Woodbrooke Road", "Town": "No town available", "Lat": "52.42894", "Long": "-1.942444", "River": "No river name available", "Catchment": "No catchment name available", "Status": "No status available", "Measure": "Water Level", "Qualifier": "Stage", "Unit": "mASD", "County": "West Midlands"}, {"StationID": "4650", "Label": "Birmingham Lodge Hill Elford Road", "Town": "No town available", "Lat": "52.44592", "Long": "-1.959798", "River": "No river name available", "Catchment": "No catchment name available", "Status": "No status available", "Measure": "Water Level", "Qualifier": "Stage", "Unit": "mASD", "County": "West Midlands"}, {"StationID": "4653", "Label": "Birmingham Perry Beeches Beeches Road", "Town": "No town available", "Lat": "52.538596", "Long": "-1.909791", "River": "No river name available", "Catchment": "No catchment name available", "Status": "No status available", "Measure": "Water Level", "Qualifier": "Stage", "Unit": "mASD", "County": "West Midlands"}, {"StationID": "L1377", "Label": "Birstall Smithies", "Town": "No town available", "Lat": "53.727802", "Long": "-1.661253", "River": "Batley Beck", "Catchment": "Aire and Calder", "Status": "http://environment.data.gov.uk/flood-monitoring/def/core/statusActive", "Measure": "Water Level", "Qualifier": "Stage", "Unit": "m", "County": "West Yorkshire"}, {"StationID": "F2106", "Label": "Birstwith", "Town": "Birstwith", "Lat": "54.038156", "Long": "-1.650292", "River": "River Nidd", "Catchment": "Swale, Ure, Nidd and Upper Ouse", "Status": "http://environment.data.gov.uk/flood-monitoring/def/core/statusActive", "Measure": "Water Level", "Qualifier": "Stage", "Unit": "m", "County": "North Yorkshire"}, {"StationID": "L2221", "Label": "Bishop Monkton", "Town": "Bishop Monkton", "Lat": "54.090598", "Long": "-1.497502", "River": "Bishop Monkton Beck", "Catchment": "Swale, Ure, Nidd and Upper Ouse", "Status": "http://environment.data.gov.uk/flood-monitoring/def/core/statusActive", "Measure": "Water Level", "Qualifier": "Stage", "Unit": "m", "County": "North Yorkshire"}, {"StationID": "E2846", "Label": "Bishopbridge", "Town": "Bishopbridge", "Lat": "53.406624", "Long": "-0.44906", "River": "River Rase", "Catchment": "Grimsby and Ancholme", "Status": "http://environment.data.gov.uk/flood-monitoring/def/core/statusActive", "Measure": "Water Level", "Qualifier": "Stage", "Unit": "mASD", "County": "Lincolnshire"}, {"StationID": "4317TH", "Label": "Bishops Avenue", "Town": "Bromley", "Lat": "51.401378", "Long": "0.028483", "River": "River Ravensbourne", "Catchment": "London", "Status": "http://environment.data.gov.uk/flood-monitoring/def/core/statusActive", "Measure": "Water Level", "Qualifier": "Stage", "Unit": "mASD", "County": "Greater London"}, {"StationID": "055028_TG_9302", "Label": "Bishops Frome", "Town": "Bishops Frome", "Lat": "52.137017", "Long": "-2.488532", "River": "River Frome (Wye)", "Catchment": "Wye", "Status": "http://environment.data.gov.uk/flood-monitoring/def/core/statusActive", "Measure": "Water Level", "Qualifier": "Stage", "Unit": "mASD", "County": "Herefordshire"}, {"StationID": "52109", "Label": "Bishops Hull", "Town": "Bishops Hull", "Lat": "51.019081", "Long": "-3.133644", "River": "River Tone", "Catchment": "Parrett, Brue and West Somerset Streams", "Status": "http://environment.data.gov.uk/flood-monitoring/def/core/statusActive", "Measure": "Water Level", "Qualifier": "Stage", "Unit": "m", "County": "Somerset"}, {"StationID": "5141TH", "Label": "Bishops Stortford, Grange Paddocks", "Town": "Bishop's Stortford", "Lat": "51.878177", "Long": "0.160906", "River": "River Stort", "Catchment": "Stort", "Status": "http://environment.data.gov.uk/flood-monitoring/def/core/statusActive", "Measure": "Water Level", "Qualifier": "Stage", "Unit": "mASD", "County": "Hertfordshire"}, {"StationID": "E12483", "Label": "Bishopstoke", "Town": "Bishopstoke", "Lat": "50.969991", "Long": "-1.33715", "River": "River Itchen", "Catchment": "Test and Itchen", "Status": "http://environment.data.gov.uk/flood-monitoring/def/core/statusActive", "Measure": "Water Level", "Qualifier": "Stage", "Unit": "mASD", "County": "Hampshire"}, {"StationID": "48137", "Label": "Bissoe", "Town": "Bissoe", "Lat": "50.229401", "Long": "-5.120933", "River": "Carnon River", "Catchment": "Fal and St Austell Streams", "Status": "http://environment.data.gov.uk/flood-monitoring/def/core/statusActive", "Measure": "Water Level", "Qualifier": "Stage", "Unit": "m", "County": "Cornwall"}, {"StationID": "53131", "Label": "Bitton", "Town": "Bitton", "Lat": "51.426965", "Long": "-2.459703", "River": "River Boyd", "Catchment": "Bristol Avon Little Avon Axe and North Somerset St", "Status": "http://environment.data.gov.uk/flood-monitoring/def/core/statusActive", "Measure": "Water Level", "Qualifier": "2, 3, Stage", "Unit": "m, m, m", "County": "Gloucestershire"}, {"StationID": "1285SO", "Label": "Black Bull Road", "Town": "Folkestone", "Lat": "51.085655", "Long": "1.177662", "River": "Pent Stream", "Catchment": "Stour", "Status": "http://environment.data.gov.uk/flood-monitoring/def/core/statusActive", "Measure": "Water Level", "Qualifier": ", Stage, Stage", "Unit": "mAOD, mAOD, mASD", "County": "Kent"}, {"StationID": "713118", "Label": "Blackburn Waterfall", "Town": "Blackburn", "Lat": "53.736803", "Long": "-2.496786", "River": "River Darwen", "Catchment": "Ribble Douglas and Crossens", "Status": "http://environment.data.gov.uk/flood-monitoring/def/core/statusActive", "Measure": "Water Level", "Qualifier": "Stage", "Unit": "m", "County": "Lancashire"}, {"StationID": "690205", "Label": "Blackford Bridge", "Town": "Hollins", "Lat": "53.5659", "Long": "-2.293017", "River": "River Roch", "Catchment": "Northern Manchester", "Status": "http://environment.data.gov.uk/flood-monitoring/def/core/statusActive", "Measure": "Water Level", "Qualifier": "Stage", "Unit": "m", "County": "Greater Manchester"}, {"StationID": "023044", "Label": "Blackhall Mill", "Town": "Blackhall Mill", "Lat": "54.905964", "Long": "-1.812313", "River": "River Derwent", "Catchment": "Derwent", "Status": "http://environment.data.gov.uk/flood-monitoring/def/core/statusActive", "Measure": "Water Level", "Qualifier": "Stage, Stage", "Unit": "---, m", "County": "Durham"}, {"StationID": "F2125", "Label": "Blackstones Farm", "Town": "Little Ribston", "Lat": "53.971111", "Long": "-1.38968", "River": "River Crimple", "Catchment": "Swale, Ure, Nidd and Upper Ouse", "Status": "http://environment.data.gov.uk/flood-monitoring/def/core/statusActive", "Measure": "Water Level", "Qualifier": "Stage", "Unit": "m", "County": "North Yorkshire"}, {"StationID": "L24012", "Label": "Blacktoft", "Town": "Blacktoft", "Lat": "53.707432", "Long": "-0.725879", "River": "River Ouse", "Catchment": "Hull and East Riding", "Status": "http://environment.data.gov.uk/flood-monitoring/def/core/statusActive", "Measure": "Water Level", "Qualifier": "Stage", "Unit": "mAOD", "County": "East Riding of Yorkshire"}, {"StationID": "2431TH", "Label": "Blackwater Bridge", "Town": "Blackwater", "Lat": "51.330889", "Long": "-0.775604", "River": "River Blackwater", "Catchment": "Loddon", "Status": "http://environment.data.gov.uk/flood-monitoring/def/core/statusActive", "Measure": "Water Level", "Qualifier": "Stage, Stage", "Unit": "m, mASD", "County": "Hampshire"}, {"StationID": "2298TH", "Label": "Blakes Lock", "Town": "Reading", "Lat": "51.456172", "Long": "-0.954614", "River": "River Kennet", "Catchment": "Vale of White Horse", "Status": "http://environment.data.gov.uk/flood-monitoring/def/core/statusActive", "Measure": "Water Level", "Qualifier": "Downstream Stage, Stage", "Unit": "mASD, mASD", "County": "Berkshire"}, {"StationID": "43210", "Label": "Blandford", "Town": "Blandford St Mary", "Lat": "50.853069", "Long": "-2.167089", "River": "River Stour", "Catchment": "Dorset Stour", "Status": "http://environment.data.gov.uk/flood-monitoring/def/core/statusActive", "Measure": "Water Level", "Qualifier": "Stage", "Unit": "mASD", "County": "Dorset"}, {"StationID": "744111", "Label": "Bleach Green Weir", "Town": "Ennerdale Bridge", "Lat": "54.525555", "Long": "-3.416967", "River": "River Ehen", "Catchment": "Derwent West Cumbria and Duddon", "Status": "http://environment.data.gov.uk/flood-monitoring/def/core/statusActive", "Measure": "Water Level", "Qualifier": "Stage", "Unit": "m", "County": "Cumbria"}, {"StationID": "754008", "Label": "Blennerhasset Bridge", "Town": "Blennerhasset", "Lat": "54.762529", "Long": "-3.278022", "River": "River Ellen", "Catchment": "Eden and Esk", "Status": "http://environment.data.gov.uk/flood-monitoring/def/core/statusActive", "Measure": "Water Level", "Qualifier": "Stage", "Unit": "m", "County": "Cumbria"}, {"StationID": "E21505", "Label": "Bletchley", "Town": "Water Eaton", "Lat": "51.981248", "Long": "-0.715727", "River": "River Ouzel", "Catchment": "Upper and Bedford Ouse", "Status": "http://environment.data.gov.uk/flood-monitoring/def/core/statusActive", "Measure": "Water Level", "Qualifier": "Stage", "Unit": "m", "County": "Buckinghamshire"}, {"StationID": "2020TH", "Label": "Blewbury", "Town": "Blewbury", "Lat": "51.573061", "Long": "-1.233747", "River": "Mill Brook", "Catchment": "Vale of White Horse", "Status": "http://environment.data.gov.uk/flood-monitoring/def/core/statusActive", "Measure": "Water Level", "Qualifier": "Downstream Stage, Stage, Stage", "Unit": "mASD, ---, mASD", "County": "Oxfordshire"}, {"StationID": "1431TH", "Label": "Bloxham", "Town": "Bloxham", "Lat": "52.017279", "Long": "-1.380792", "River": "Bloxham Brook", "Catchment": "Cherwell Thame and Wye", "Status": "http://environment.data.gov.uk/flood-monitoring/def/core/statusActive", "Measure": "Water Level", "Qualifier": "Stage", "Unit": "mASD", "County": "Oxfordshire"}, {"StationID": "713122", "Label": "Blue Bridge", "Town": "Walton-Le-Dale", "Lat": "53.744555", "Long": "-2.6615", "River": "River Darwen", "Catchment": "Ribble Douglas and Crossens", "Status": "http://environment.data.gov.uk/flood-monitoring/def/core/statusActive", "Measure": "Water Level", "Qualifier": "Stage", "Unit": "m", "County": "Lancashire"}, {"StationID": "E21647", "Label": "Blunham", "Town": "Blunham", "Lat": "52.144358", "Long": "-0.316453", "River": "River Ivel", "Catchment": "Upper and Bedford Ouse", "Status": "http://environment.data.gov.uk/flood-monitoring/def/core/statusActive", "Measure": "Water Level", "Qualifier": "Stage", "Unit": "m", "County": "Bedfordshire"}, {"StationID": "022999", "Label": "Blyth", "Town": "Blyth", "Lat": "55.12861", "Long": "-1.494986", "River": "North Sea", "Catchment": "Northumberland Rivers", "Status": "http://environment.data.gov.uk/flood-monitoring/def/core/statusActive", "Measure": "Water Level", "Qualifier": "Tidal Level", "Unit": "mAOD", "County": "Nottinghamshire"}, {"StationID": "4091", "Label": "Blyth", "Town": "Blyth", "Lat": "53.377166", "Long": "-1.053244", "River": "River Ryton", "Catchment": "Idle and Torne", "Status": "http://environment.data.gov.uk/flood-monitoring/def/core/statusActive", "Measure": "Flow, Water Level", "Qualifier": ", , Stage", "Unit": "Ml/d, m3/s, mASD", "County": "Nottinghamshire"}, {"StationID": "4159", "Label": "Blythe Bridge", "Town": "No town available", "Lat": "52.970005", "Long": "-2.073464", "River": "River Blithe", "Catchment": "Staffordshire Trent Valley", "Status": "http://environment.data.gov.uk/flood-monitoring/def/core/statusActive", "Measure": "Water Level", "Qualifier": "Stage", "Unit": "mASD", "County": "Staffordshire"}, {"StationID": "2225", "Label": "Bodiam Avenue", "Town": "Gloucester", "Lat": "51.832287", "Long": "-2.270144", "River": "Daniels Brook", "Catchment": "Severn Vale", "Status": "http://environment.data.gov.uk/flood-monitoring/def/core/statusActive", "Measure": "Water Level", "Qualifier": "Stage", "Unit": "mASD", "County": "Gloucestershire"}, {"StationID": "2425", "Label": "Bodiam Avenue Relief Channel", "Town": "Gloucester", "Lat": "51.832287", "Long": "-2.270144", "River": "Daniels Brook", "Catchment": "Severn Vale", "Status": "http://environment.data.gov.uk/flood-monitoring/def/core/statusActive", "Measure": "Water Level", "Qualifier": "Stage", "Unit": "mASD", "County": "Gloucestershire"}, {"StationID": "1437TH", "Label": "Bodicote", "Town": "Bodicote", "Lat": "52.028582", "Long": "-1.326852", "River": "Sor Brook", "Catchment": "Cherwell Thame and Wye", "Status": "http://environment.data.gov.uk/flood-monitoring/def/core/statusActive", "Measure": "Water Level", "Qualifier": "Downstream Stage, Stage", "Unit": "mASD, mASD", "County": "Oxfordshire"}, {"StationID": "49182", "Label": "Bodmin Dunmere", "Town": "Bodmin", "Lat": "50.474131", "Long": "-4.757115", "River": "River Camel", "Catchment": "North Cornwall", "Status": "http://environment.data.gov.uk/flood-monitoring/def/core/statusActive", "Measure": "Water Level", "Qualifier": "Stage", "Unit": "m", "County": "Cornwall"}, {"StationID": "49153", "Label": "Bodmin St Petrocs Well", "Town": "Bodmin", "Lat": "50.468455", "Long": "-4.713137", "River": "Bodmin Town Leat", "Catchment": "North Cornwall", "Status": "http://environment.data.gov.uk/flood-monitoring/def/core/statusActive", "Measure": "Water Level", "Qualifier": "Stage", "Unit": "m", "County": "Cornwall"}, {"StationID": "E10943", "Label": "Bognor", "Town": "Aldingbourne", "Lat": "50.797459", "Long": "-0.667903", "River": "Aldingbourne Rife", "Catchment": "Arun and Western Streams", "Status": "http://environment.data.gov.uk/flood-monitoring/def/core/statusActive", "Measure": "Water Level", "Qualifier": "Stage", "Unit": "mAOD", "County": "West Sussex"}, {"StationID": "48110", "Label": "Bolingey Cocks Bridge", "Town": "Bolingey", "Lat": "50.333505", "Long": "-5.137115", "River": "Bolingey Stream", "Catchment": "West Cornwall", "Status": "http://environment.data.gov.uk/flood-monitoring/def/core/statusActive", "Measure": "Water Level", "Qualifier": "Stage", "Unit": "m", "County": "Cornwall"}, {"StationID": "693515", "Label": "Bollington Mill", "Town": "Little Bollington", "Lat": "53.380045", "Long": "-2.406589", "River": "River Bollin", "Catchment": "Upper Mersey", "Status": "http://environment.data.gov.uk/flood-monitoring/def/core/statusActive", "Measure": "Water Level", "Qualifier": "Stage", "Unit": "m", "County": "Greater Manchester"}, {"StationID": "L08013", "Label": "Bolton Bridge", "Town": "Bolton Upon Dearne", "Lat": "53.513589", "Long": "-1.312304", "River": "River Dearne", "Catchment": "Don and Rother", "Status": "http://environment.data.gov.uk/flood-monitoring/def/core/statusActive", "Measure": "Water Level", "Qualifier": "Stage", "Unit": "m", "County": "South Yorkshire"}, {"StationID": "690481", "Label": "Bolton Hillview Road", "Town": "No town available", "Lat": "53.599855", "Long": "-2.435429", "River": "No river name available", "Catchment": "No catchment name available", "Status": "No status available", "Measure": "Water Level", "Qualifier": "Stage", "Unit": "m", "County": "Greater Manchester"}, {"StationID": "L2013", "Label": "Bolton Percy", "Town": "Bolton Percy", "Lat": "53.863248", "Long": "-1.192116", "River": "River Wharfe", "Catchment": "Swale, Ure, Nidd and Upper Ouse", "Status": "http://environment.data.gov.uk/flood-monitoring/def/core/statusActive", "Measure": "Water Level", "Qualifier": "Stage", "Unit": "mAOD", "County": "North Yorkshire"}, {"StationID": "2667", "Label": "Bondend Road", "Town": "Gloucester", "Lat": "51.834606", "Long": "-2.193371", "River": "River Twyver", "Catchment": "Severn Vale", "Status": "http://environment.data.gov.uk/flood-monitoring/def/core/statusActive", "Measure": "Water Level", "Qualifier": "Stage", "Unit": "mASD", "County": "Gloucestershire"}, {"StationID": "45217", "Label": "Bonehayne", "Town": "Colyton", "Lat": "50.747683", "Long": "-3.110915", "River": "River Coly", "Catchment": "Otter, Sid, Axe and Lim", "Status": "http://environment.data.gov.uk/flood-monitoring/def/core/statusActive", "Measure": "Water Level", "Qualifier": "Stage", "Unit": "m", "County": "Devon"}, {"StationID": "3235TH", "Label": "Bonehurst Bridge", "Town": "Horley", "Lat": "51.186743", "Long": "-0.163694", "River": "Burstow Stream", "Catchment": "Mole", "Status": "http://environment.data.gov.uk/flood-monitoring/def/core/statusActive", "Measure": "Water Level", "Qualifier": "Stage", "Unit": "mASD", "County": "Surrey"}, {"StationID": "2821TH", "Label": "Borehamwood", "Town": "Green Street", "Lat": "51.668568", "Long": "-0.287687", "River": "Borehamwood Brook", "Catchment": "Colne (Upper)", "Status": "http://environment.data.gov.uk/flood-monitoring/def/core/statusActive", "Measure": "Water Level", "Qualifier": "Stage", "Unit": "mASD", "County": "Hertfordshire"}, {"StationID": "2608", "Label": "Boreton Bridge", "Town": "No town available", "Lat": "52.656574", "Long": "-2.716652", "River": "Cound Brook", "Catchment": "Severn Uplands", "Status": "http://environment.data.gov.uk/flood-monitoring/def/core/statusActive", "Measure": "Water Level", "Qualifier": "Stage", "Unit": "mASD", "County": "Shropshire"}, {"StationID": "2438SO", "Label": "Borough Grove", "Town": "Petersfield", "Lat": "51.000834", "Long": "-0.944385", "River": "Petersfield Stream", "Catchment": "East Hampshire", "Status": "http://environment.data.gov.uk/flood-monitoring/def/core/statusActive", "Measure": "Water Level", "Qualifier": "Stage", "Unit": "mAOD", "County": "Hampshire"}, {"StationID": "L2210", "Label": "Boroughbridge", "Town": "Boroughbridge", "Lat": "54.09673", "Long": "-1.394627", "River": "River Tutt", "Catchment": "Swale, Ure, Nidd and Upper Ouse", "Status": "http://environment.data.gov.uk/flood-monitoring/def/core/statusActive", "Measure": "Water Level", "Qualifier": "1, 1", "Unit": "---, mAOD", "County": "North Yorkshire"}, {"StationID": "L2201", "Label": "Boroughbridge", "Town": "Boroughbridge", "Lat": "54.097025", "Long": "-1.394348", "River": "River Ure", "Catchment": "Swale, Ure, Nidd and Upper Ouse", "Status": "http://environment.data.gov.uk/flood-monitoring/def/core/statusActive", "Measure": "Water Level", "Qualifier": "Stage, Stage", "Unit": "---, mAOD", "County": "North Yorkshire"}, {"StationID": "2255", "Label": "Bosbury", "Town": "Bosbury", "Lat": "52.08804", "Long": "-2.446839", "River": "River Leadon", "Catchment": "Severn Vale", "Status": "http://environment.data.gov.uk/flood-monitoring/def/core/statusActive", "Measure": "Water Level", "Qualifier": "Stage", "Unit": "mASD", "County": "Herefordshire"}, {"StationID": "48138", "Label": "Boscadjack", "Town": "Wendron", "Lat": "50.131125", "Long": "-5.255319", "River": "River Cober", "Catchment": "West Cornwall", "Status": "http://environment.data.gov.uk/flood-monitoring/def/core/statusActive", "Measure": "Water Level", "Qualifier": "Stage", "Unit": "m", "County": "Cornwall"}, {"StationID": "49173", "Label": "Boscastle Anderton Ford", "Town": "Boscastle", "Lat": "50.690388", "Long": "-4.632983", "River": "River Valency", "Catchment": "North Cornwall", "Status": "http://environment.data.gov.uk/flood-monitoring/def/core/statusSuspended", "Measure": "Water Level", "Qualifier": "Stage", "Unit": "m", "County": "Cornwall"}, {"StationID": "49174", "Label": "Boscastle County Bridge", "Town": "Boscastle", "Lat": "50.68979", "Long": "-4.692972", "River": "River Valency", "Catchment": "North Cornwall", "Status": "http://environment.data.gov.uk/flood-monitoring/def/core/statusActive", "Measure": "Water Level", "Qualifier": "Stage", "Unit": "m", "County": "Cornwall"}, {"StationID": "49124", "Label": "Boscastle New Mills", "Town": "Boscastle", "Lat": "50.691075", "Long": "-4.694207", "River": "River Valency", "Catchment": "North Cornwall", "Status": "http://environment.data.gov.uk/flood-monitoring/def/core/statusActive", "Measure": "Water Level", "Qualifier": "1, Stage", "Unit": "m, m", "County": "Cornwall"}, {"StationID": "E11090", "Label": "Bosham Moreton Road", "Town": "Bosham", "Lat": "50.831317", "Long": "-0.857887", "River": "Bosham Stream", "Catchment": "Arun and Western Streams", "Status": "http://environment.data.gov.uk/flood-monitoring/def/core/statusActive", "Measure": "Water Level", "Qualifier": "Stage, Stage", "Unit": "mAOD, mASD", "County": "West Sussex"}, {"StationID": "764070", "Label": "Botcherby Bridge, Carlisle", "Town": "Botcherby, Carlisle", "Lat": "54.89341", "Long": "-2.910796", "River": "River Petteril", "Catchment": "Eden and Esk", "Status": "http://environment.data.gov.uk/flood-monitoring/def/core/statusActive", "Measure": "Water Level", "Qualifier": "Stage", "Unit": "m", "County": "Cumbria"}, {"StationID": "692117", "Label": "Bottoms Reservoir", "Town": "No town available", "Lat": "53.470933", "Long": "-1.965681", "River": "No river name available", "Catchment": "No catchment name available", "Status": "No status available", "Measure": "Water Level", "Qualifier": "Stage", "Unit": "m", "County": "Derbyshire"}, {"StationID": "2602TH", "Label": "Boulters Lock", "Town": "Taplow", "Lat": "51.532713", "Long": "-0.699466", "River": "River Thames", "Catchment": "Thames from Hurley to Teddington", "Status": "http://environment.data.gov.uk/flood-monitoring/def/core/statusActive", "Measure": "Water Level", "Qualifier": "Downstream Stage, Downstream Stage, Stage, Stage", "Unit": "---, mASD, ---, mASD", "County": "Berkshire"}, {"StationID": "E24805", "Label": "Bourn Brook", "Town": "Bourn", "Lat": "52.192643", "Long": "-0.064443", "River": "Bourn Brook", "Catchment": "Cam and Ely Ouse (Including South Level)", "Status": "http://environment.data.gov.uk/flood-monitoring/def/core/statusActive", "Measure": "Water Level", "Qualifier": "Stage", "Unit": "mASD", "County": "Cambridgeshire"}, {"StationID": "2590TH", "Label": "Bourne End", "Town": "Bourne End", "Lat": "51.571155", "Long": "-0.708557", "River": "River Wye", "Catchment": "Cherwell Thame and Wye", "Status": "http://environment.data.gov.uk/flood-monitoring/def/core/statusActive", "Measure": "Water Level", "Qualifier": "Stage", "Unit": "mASD", "County": "Buckinghamshire"}, {"StationID": "1029TH", "Label": "Bourton Dickler", "Town": "Little Rissington", "Lat": "51.874767", "Long": "-1.740083", "River": "River Dikler", "Catchment": "Cotswolds", "Status": "http://environment.data.gov.uk/flood-monitoring/def/core/statusActive", "Measure": "Water Level", "Qualifier": "Downstream Stage, Stage", "Unit": "mASD, mASD", "County": "Gloucestershire"}, {"StationID": "E24806", "Label": "Bourton Grounds", "Town": "Bourton Grounds", "Lat": "51.991569", "Long": "-0.939719", "River": "Twin", "Catchment": "Upper and Bedford Ouse", "Status": "http://environment.data.gov.uk/flood-monitoring/def/core/statusSuspended", "Measure": "Water Level", "Qualifier": "Stage", "Unit": "mASD", "County": "Buckinghamshire"}, {"StationID": "1020TH", "Label": "Bourton Windrush", "Town": "Bourton-On-The-Water", "Lat": "51.886693", "Long": "-1.767911", "River": "River Windrush", "Catchment": "Cotswolds", "Status": "http://environment.data.gov.uk/flood-monitoring/def/core/statusActive", "Measure": "Water Level", "Qualifier": "Downstream Stage, Stage", "Unit": "mASD, mASD", "County": "Gloucestershire"}, {"StationID": "46133", "Label": "Bovey Parke", "Town": "Bovey Tracey", "Lat": "50.595603", "Long": "-3.682853", "River": "River Bovey", "Catchment": "Teign Torbay and South Hams", "Status": "http://environment.data.gov.uk/flood-monitoring/def/core/statusActive", "Measure": "Water Level", "Qualifier": "Stage", "Unit": "m", "County": "Devon"}, {"StationID": "E81959", "Label": "Bovey Tracey Wifford Footbridge", "Town": "Bovey Tracey Wifford Footbridge", "Lat": "50.581483", "Long": "-3.667814", "River": "River Bovey Tributary", "Catchment": "Teign Torbay and South Hams", "Status": "http://environment.data.gov.uk/flood-monitoring/def/core/statusActive", "Measure": "Water Level", "Qualifier": "Stage", "Unit": "m", "County": "Devon"}, {"StationID": "738345", "Label": "Bow Bridge Abbey Road", "Town": "Dalton In Furness", "Lat": "54.155019", "Long": "-3.184714", "River": "Poaka Beck", "Catchment": "South Cumbria", "Status": "http://environment.data.gov.uk/flood-monitoring/def/core/statusActive", "Measure": "Water Level", "Qualifier": "Downstream Stage, Stage", "Unit": "m, m", "County": "Cumbria"}, {"StationID": "730120", "Label": "Bowston", "Town": "Burneside", "Lat": "54.36176", "Long": "-2.771951", "River": "River Kent", "Catchment": "South Cumbria", "Status": "http://environment.data.gov.uk/flood-monitoring/def/core/statusActive", "Measure": "Water Level", "Qualifier": "Stage", "Unit": "m", "County": "Cumbria"}, {"StationID": "E21852", "Label": "Boxford", "Town": "Boxford", "Lat": "52.028438", "Long": "0.858403", "River": "River Box", "Catchment": "Essex", "Status": "http://environment.data.gov.uk/flood-monitoring/def/core/statusActive", "Measure": "Water Level", "Qualifier": "Stage", "Unit": "mASD", "County": "Suffolk"}, {"StationID": "E1538", "Label": "Boygrift", "Town": "Sandilands", "Lat": "53.293005", "Long": "0.297051", "River": "Tide", "Catchment": "England - East Coast", "Status": "http://environment.data.gov.uk/flood-monitoring/def/core/statusActive", "Measure": "Water Level", "Qualifier": "Tidal Level", "Unit": "mAOD", "County": "Lincolnshire"}, {"StationID": "F3004", "Label": "Boynton", "Town": "Boynton", "Lat": "54.093099", "Long": "-0.263772", "River": "Gypsey Race", "Catchment": "Hull and East Riding", "Status": "http://environment.data.gov.uk/flood-monitoring/def/core/statusActive", "Measure": "Water Level", "Qualifier": "Stage", "Unit": "m", "County": "East Riding of Yorkshire"}, {"StationID": "E1594", "Label": "Bracebridge", "Town": "Boultham", "Lat": "53.202079", "Long": "-0.553771", "River": "River Witham", "Catchment": "Witham", "Status": "http://environment.data.gov.uk/flood-monitoring/def/core/statusActive", "Measure": "Water Level", "Qualifier": "Stage", "Unit": "mASD", "County": "Lincolnshire"}, {"StationID": "E23726", "Label": "Brackley", "Town": "Brackley", "Lat": "52.031808", "Long": "-1.132641", "River": "River Great Ouse", "Catchment": "Upper and Bedford Ouse", "Status": "http://environment.data.gov.uk/flood-monitoring/def/core/statusActive", "Measure": "Water Level", "Qualifier": "Stage", "Unit": "mASD", "County": "Buckinghamshire"}, {"StationID": "F3707", "Label": "Bradbury", "Town": "Bradbury", "Lat": "54.650589", "Long": "-1.508677", "River": "River Skerne", "Catchment": "Tees", "Status": "http://environment.data.gov.uk/flood-monitoring/def/core/statusActive", "Measure": "Water Level", "Qualifier": "Stage", "Unit": "m", "County": "Durham"}, {"StationID": "L1656", "Label": "Bradford Greenside", "Town": "Bradford Greenside", "Lat": "53.795159", "Long": "-1.791858", "River": "Bradford Beck", "Catchment": "Aire and Calder", "Status": "http://environment.data.gov.uk/flood-monitoring/def/core/statusActive", "Measure": "Water Level", "Qualifier": "Stage", "Unit": "m", "County": "West Yorkshire"}, {"StationID": "531118", "Label": "Bradley Bridge", "Town": "Winterbourne", "Lat": "51.521892", "Long": "-2.521122", "River": "Bradley Brook", "Catchment": "Bristol Avon Little Avon Axe and North Somerset St", "Status": "http://environment.data.gov.uk/flood-monitoring/def/core/statusActive", "Measure": "Water Level", "Qualifier": "Stage", "Unit": "m", "County": "Gloucestershire"}, {"StationID": "E71333", "Label": "Bradninch Hele Station Road", "Town": "No town available", "Lat": "50.812445", "Long": "-3.429297", "River": "River Culm", "Catchment": "Exe", "Status": "http://environment.data.gov.uk/flood-monitoring/def/core/statusActive", "Measure": "Water Level", "Qualifier": "Stage", "Unit": "m", "County": "Devon"}, {"StationID": "4693", "Label": "Bradwell", "Town": "Bradwell", "Lat": "53.328427", "Long": "-1.738804", "River": "Bradwell Brook", "Catchment": "Derbyshire Derwent", "Status": "http://environment.data.gov.uk/flood-monitoring/def/core/statusActive", "Measure": "Water Level", "Qualifier": "Stage", "Unit": "mASD", "County": "Derbyshire"}, {"StationID": "50146", "Label": "Bradworthy", "Town": "Bradworthy", "Lat": "50.90173", "Long": "-4.392867", "River": "River Waldon", "Catchment": "Torridge and Hartland Streams", "Status": "http://environment.data.gov.uk/flood-monitoring/def/core/statusActive", "Measure": "Water Level", "Qualifier": "Stage", "Unit": "m", "County": "Devon"}, {"StationID": "4827TH", "Label": "Bragbury Park", "Town": "Bragbury End", "Lat": "51.874477", "Long": "-0.149495", "River": "Stevenage Brook", "Catchment": "Beane", "Status": "http://environment.data.gov.uk/flood-monitoring/def/core/statusActive", "Measure": "Water Level", "Qualifier": "Stage", "Unit": "mASD", "County": "Hertfordshire"}, {"StationID": "E24808", "Label": "Bramfield", "Town": "No town available", "Lat": "52.309767", "Long": "1.520192", "River": "Bramfield Watercourse", "Catchment": "East Suffolk", "Status": "http://environment.data.gov.uk/flood-monitoring/def/core/statusActive", "Measure": "Water Level", "Qualifier": "Stage, Stage", "Unit": "mAOD, mASD", "County": "Suffolk"}, {"StationID": "692665", "Label": "Bramhall Green Bridge Lane", "Town": "No town available", "Lat": "53.374217", "Long": "-2.157174", "River": "No river name available", "Catchment": "No catchment name available", "Status": "No status available", "Measure": "Water Level", "Qualifier": "Stage", "Unit": "m", "County": "Greater Manchester"}, {"StationID": "386386", "Label": "Bramhall Green Bridge Lane", "Town": "No town available", "Lat": "53.374217", "Long": "-2.157174", "River": "No river name available", "Catchment": "No catchment name available", "Status": "No status available", "Measure": "Water Level", "Qualifier": "Stage", "Unit": "m", "County": "Greater Manchester"}, {"StationID": "L2035", "Label": "Bramham Screens", "Town": "Bramham", "Lat": "53.880307", "Long": "-1.355437", "River": "Bramham Beck", "Catchment": "Wharfe and Lower Ouse", "Status": "http://environment.data.gov.uk/flood-monitoring/def/core/statusActive", "Measure": "Water Level", "Qualifier": "Stage, Stage", "Unit": "---, m", "County": "West Yorkshire"},